#------------------------------------------------------------------------------
# Created by    : mgeorge
# Created on    : 07/19/2023 10:29:38
#------------------------------------------------------------------------------
~Version Information Section
VERS.           2.0     :   CWLS log ASCII Standard - VERSION 2.0
WRAP.           NO      :   One line per depth step
~Well Information Section
#MNEM       .UNIT                                         VALUE :DESCRIPTION
#------------------------------------------------------------------------------
STRT        .FT                                           11964 :START DEPTH
STOP        .FT                                         16416.5 :STOP DEPTH
STEP        .FT                                             0.5 :STEP      
NULL        .                                           -999.25 :NULL      
COMP        .              ADVANCE ENERGY PARTNERS HAT MESA LLC :COMPANY   
WELL        .                                  DAGGER STATE SWD :WELL      
FLD         .                                               SWD :FIELD     
LOC         .                                                   :LOCATION  
CNTY        .                                               LEA :LOCATION  
STAT        .                                        NEW MEXICO :STATE     
CTRY        .                                     UNITED STATES :COUNTRY   
SRVC        .                                                   :SERVICE COMPANY
DATE        .                              1/27/2023 5:38:29 PM :LOG DATE  
API         .                                    30025458150000 :API NUMBER
UWI         .                                    30025458150000 :UNIQUE WELL ID
XCOORD      .                                  990031.214140587 :SURFACE X 
YCOORD      .                                  1027167.67164026 :SURFACE Y 
LAT         .                                        32.4498049 :LATITUDE  
LON         .                                      -103.6069526 :LONGITUDE 
ELEV        .FT                                            3803 :ELEVATION VALUE
ELEV_TYPE   .                                                KB :ELEVATION REFERENCE TYPE
~Curve Information Section
#MNEM       .UNIT                                      API CODE :CURVE DESCRIPTION
#------------------------------------------------------------------------------
DEPT        .FT                                                 :DEPTH     
AF90        .OHMM                                               :AF90      
AFCO90      .MM/M                                               :Array Induction Four Foot Conductivity A90 {F13.4}
AT90        .OHMM                                               :AT90      
ATCO90      .MM/M                                               :ATCO90    
ATRT        .OHMM                                               :ATRT      
CNTC        .HZ                                                 :CNTC      
ECGR        .GAPI                                               :ECGR      
EHGR        .GAPI                                               :EHGR      
GAMMA       .UNITLESS                                           :GAMMA     
GR          .GAPI                                               :GR        
GR_EDTC     .GAPI                                               :GR_EDTC   
HCGR        .GAPI                                               :HCGR      
HGR         .GAPI                                               :HGR       
HNPO        .CFCF                                               :HNPO      
HSGR        .GAPI                                               :HSGR      
ILD         .                                                   :ILD       
MCGR        .GAPI                                               :MCGR      
NPHI        .CFCF                                               :Nphi      
NPOR        .CFCF                                               :NPOR      
NPOR_LIM    .CFCF                                               :NPOR_LIM  
PE          .                                                   :PE        
PEF         .                                                   :PEF       
PEF8        .                                                   :PEF8      
PEFZ        .                                                   :PEFZ      
RHO8        .G/C3                                               :RHO8      
RHOB        .                                                   :RHOB      
RHOZ        .G/C3                                               :RHOZ      
TNPH        .CFCF                                               :TNPH      
TNPH_LIM    .CFCF                                               :TNPH_LIM  
~A        DEPTH           AF90         AFCO90           AT90         ATCO90           ATRT           CNTC           ECGR           EHGR          GAMMA             GR        GR_EDTC           HCGR            HGR           HNPO           HSGR            ILD           MCGR           NPHI           NPOR       NPOR_LIM             PE            PEF           PEF8           PEFZ           RHO8           RHOB           RHOZ           TNPH       TNPH_LIM
# ...
     13638.0000        -999.25        -999.25        -999.25        -999.25        -999.25       4718.986          70.91         71.386        -999.25         69.684         70.973         47.186         70.152          0.083         64.945        -999.25         43.708          0.063          0.085          0.085        -999.25        -999.25          3.753          3.686           2.66        2.64844          2.649          0.063          0.063
     13638.5000        -999.25        -999.25        -999.25        -999.25        -999.25       4803.736         63.534         68.174        -999.25         62.435         60.596         41.216         66.995           0.06         56.184        -999.25         38.111           0.04          0.051          0.051        -999.25        -999.25          3.452          3.546          2.589        2.63476          2.634          0.056          0.056
     13639.0000        -999.25        -999.25        -999.25        -999.25        -999.25       4986.011         54.967         51.041        -999.25         54.017         57.221         38.167         50.159          0.039         53.301        -999.25         35.199          0.025          0.036          0.036        -999.25        -999.25          3.351          3.651          2.644        2.63647          2.636          0.041          0.041
     13639.5000        -999.25        -999.25        -999.25        -999.25        -999.25       5217.814         53.897         45.687        -999.25         52.965         55.922         40.224         44.897          0.032         53.038        -999.25         37.212           0.02          0.028          0.028        -999.25        -999.25          3.976          3.948           2.67        2.65015          2.651          0.033          0.033
     13640.0000        -999.25        -999.25        -999.25        -999.25        -999.25       5408.075         54.254         64.962        -999.25         53.316         55.707         39.913         63.839          0.038         53.272        -999.25         36.851           0.02          0.035          0.035        -999.25        -999.25          4.645          4.268          2.682        2.65699          2.657          0.029          0.029
     13640.5000        -999.25        -999.25        -999.25        -999.25        -999.25       5621.938         51.874         52.112        -999.25         50.977         51.474         33.866         51.211          0.039         45.494        -999.25         31.094          0.018          0.034          0.034        -999.25        -999.25          3.917          4.511          2.683        2.67238          2.673          0.027          0.027
     13641.0000        -999.25        -999.25        -999.25        -999.25        -999.25       5755.771         40.333         38.548        -999.25         39.636         43.503         27.784         37.882          0.021          36.38        -999.25         25.384          0.011          0.019          0.019        -999.25        -999.25          5.221          4.676          2.706         2.6929          2.693          0.022          0.022
     13641.5000        -999.25        -999.25        -999.25        -999.25        -999.25       5876.541         35.455         30.339        -999.25         34.842         37.206         23.367         29.814          0.005         32.341        -999.25         21.138          0.007          0.005          0.005        -999.25        -999.25          5.158          4.792          2.714        2.72539          2.725          0.014          0.014
     13642.0000        -999.25        -999.25        -999.25        -999.25        -999.25       6073.155         34.987         37.537        -999.25         34.382         33.554         23.097         36.889           0.01         31.127        -999.25         20.894          0.007          0.011          0.011        -999.25        -999.25          4.165           4.89          2.684        2.72539          2.726           0.01           0.01
     13642.5000        -999.25        -999.25        -999.25        -999.25        -999.25       6219.984         34.987         37.775        -999.25         34.382         31.725         21.813         37.122          0.014         29.036        -999.25         19.727          0.007          0.019          0.019        -999.25        -999.25           5.39          5.037          2.736           2.71           2.71           0.01           0.01
     13643.0000        -999.25        -999.25        -999.25        -999.25        -999.25       6245.289         29.633         30.339        -999.25          29.12         27.643         17.855         29.814          0.013         23.489        -999.25          16.07          0.005          0.005          0.005        -999.25        -999.25          4.983          5.147          2.694         2.6929          2.694          0.008          0.008
     13643.5000        -999.25        -999.25        -999.25        -999.25        -999.25       6226.279         25.104         21.416        -999.25          24.67         25.152         16.243         21.046         -0.001          21.08        -999.25         14.607          0.004         -0.002         -0.002        -999.25        -999.25          5.389          5.155          2.701        2.70829          2.709          0.007          0.007
     13644.0000        -999.25        -999.25        -999.25        -999.25        -999.25       6140.618         28.554         23.557        -999.25         28.061         31.384         17.922          23.15          0.004         22.906        -999.25         16.189          0.005          0.004          0.004        -999.25        -999.25          5.051          4.855          2.714        2.71342          2.714          0.009          0.009
     13644.5000        -999.25        -999.25        -999.25        -999.25        -999.25       5925.257         37.701          40.69        -999.25         37.049         35.979         24.633         39.986          0.015         33.226        -999.25           22.3          0.009          0.013          0.013        -999.25        -999.25           4.71          4.419           2.71        2.71342          2.714          0.013          0.013
     13645.0000        -999.25        -999.25        -999.25        -999.25        -999.25       5677.356         48.715         48.662        -999.25         47.872         44.483         31.541          47.82          0.031         41.106        -999.25         28.751          0.014          0.027          0.027        -999.25        -999.25          3.428          4.027          2.684        2.68777          2.688           0.02           0.02
     13645.5000        -999.25        -999.25        -999.25        -999.25        -999.25       5517.579         50.655         56.752        -999.25          49.78         46.342         33.756         55.771           0.03         45.255        -999.25         30.867          0.015          0.031          0.031        -999.25        -999.25          3.691          3.933          2.666        2.67067          2.671          0.025          0.025
     13646.0000        -999.25        -999.25        -999.25        -999.25        -999.25       5396.002          50.67         45.508        -999.25         49.794         48.111         32.408         44.722          0.032         43.445        -999.25         29.713          0.016          0.026          0.026        -999.25        -999.25          4.298          4.066          2.674        2.66725          2.668          0.025          0.025
     13646.5000        -999.25        -999.25        -999.25        -999.25        -999.25       5374.874         49.055         48.899        -999.25         48.208         46.109         32.786         48.054          0.022         42.335        -999.25         30.255          0.014           0.02           0.02        -999.25        -999.25          4.375          4.193          2.683        2.67922          2.679          0.025          0.025
