#------------------------------------------------------------------------------
# Created by    : mgeorge
# Created on    : 07/19/2023 10:29:38
#------------------------------------------------------------------------------
~Version Information Section
VERS.           2.0     :   CWLS log ASCII Standard - VERSION 2.0
WRAP.           NO      :   One line per depth step
~Well Information Section
#MNEM       .UNIT                                         VALUE :DESCRIPTION
#------------------------------------------------------------------------------
STRT        .FT                                           11964 :START DEPTH
STOP        .FT                                         16416.5 :STOP DEPTH
STEP        .FT                                             0.5 :STEP      
NULL        .                                           -999.25 :NULL      
COMP        .              ADVANCE ENERGY PARTNERS HAT MESA LLC :COMPANY   
WELL        .                                  DAGGER STATE SWD :WELL      
FLD         .                                               SWD :FIELD     
LOC         .                                                   :LOCATION  
CNTY        .                                               LEA :LOCATION  
STAT        .                                        NEW MEXICO :STATE     
CTRY        .                                     UNITED STATES :COUNTRY   
SRVC        .                                                   :SERVICE COMPANY
DATE        .                              1/27/2023 5:38:29 PM :LOG DATE  
API         .                                    30025458150000 :API NUMBER
UWI         .                                    30025458150000 :UNIQUE WELL ID
XCOORD      .                                  990031.214140587 :SURFACE X 
YCOORD      .                                  1027167.67164026 :SURFACE Y 
LAT         .                                        32.4498049 :LATITUDE  
LON         .                                      -103.6069526 :LONGITUDE 
ELEV        .FT                                            3803 :ELEVATION VALUE
ELEV_TYPE   .                                                KB :ELEVATION REFERENCE TYPE
~Curve Information Section
#MNEM       .UNIT                                      API CODE :CURVE DESCRIPTION
#------------------------------------------------------------------------------
DEPT        .FT                                                 :DEPTH     
AF90        .OHMM                                               :AF90      
AFCO90      .MM/M                                               :Array Induction Four Foot Conductivity A90 {F13.4}
AT90        .OHMM                                               :AT90      
ATCO90      .MM/M                                               :ATCO90    
ATRT        .OHMM                                               :ATRT      
CNTC        .HZ                                                 :CNTC      
ECGR        .GAPI                                               :ECGR      
EHGR        .GAPI                                               :EHGR      
GAMMA       .UNITLESS                                           :GAMMA     
GR          .GAPI                                               :GR        
GR_EDTC     .GAPI                                               :GR_EDTC   
HCGR        .GAPI                                               :HCGR      
HGR         .GAPI                                               :HGR       
HNPO        .CFCF                                               :HNPO      
HSGR        .GAPI                                               :HSGR      
ILD         .                                                   :ILD       
MCGR        .GAPI                                               :MCGR      
NPHI        .CFCF                                               :Nphi      
NPOR        .CFCF                                               :NPOR      
NPOR_LIM    .CFCF                                               :NPOR_LIM  
PE          .                                                   :PE        
PEF         .                                                   :PEF       
PEF8        .                                                   :PEF8      
PEFZ        .                                                   :PEFZ      
RHO8        .G/C3                                               :RHO8      
RHOB        .                                                   :RHOB      
RHOZ        .G/C3                                               :RHOZ      
TNPH        .CFCF                                               :TNPH      
TNPH_LIM    .CFCF                                               :TNPH_LIM  
~A        DEPTH           AF90         AFCO90           AT90         ATCO90           ATRT           CNTC           ECGR           EHGR          GAMMA             GR        GR_EDTC           HCGR            HGR           HNPO           HSGR            ILD           MCGR           NPHI           NPOR       NPOR_LIM             PE            PEF           PEF8           PEFZ           RHO8           RHOB           RHOZ           TNPH       TNPH_LIM
# ...
     14889.0000        -999.25        -999.25        -999.25        -999.25        -999.25       2062.044        139.955         137.42        -999.25        137.536        152.653         82.617        135.044          0.292        140.119        -999.25         77.996          0.293          0.319          0.319        -999.25        -999.25            3.9          4.047          2.613        2.61082          2.611          0.281          0.281
     14889.5000        -999.25        -999.25        -999.25        -999.25        -999.25       2056.325        147.176        155.623        -999.25        144.632        153.106         84.998        152.933          0.287        146.247        -999.25         80.212          0.325          0.307          0.307        -999.25        -999.25          4.347           4.08          2.595        2.60056            2.6           0.28           0.28
     14890.0000        -999.25        -999.25        -999.25        -999.25        -999.25       2177.875        152.292        148.485        -999.25        149.659        149.836         85.749        145.918          0.266        148.058        -999.25         80.941           0.33           0.28           0.28        -999.25        -999.25          4.096          4.086          2.589        2.58346          2.584          0.282          0.282
     14890.5000        -999.25        -999.25        -999.25        -999.25        -999.25       2439.004        141.465        152.768        -999.25         139.02        136.935         69.901        150.127           0.34        131.621        -999.25         65.708          0.295          0.333          0.333        -999.25        -999.25          3.883          4.103          2.583        2.58859          2.589          0.279          0.279
     14891.0000        -999.25        -999.25        -999.25        -999.25        -999.25       2671.824        122.548        123.142        -999.25        120.429        118.578         58.171        121.014          0.228        109.387        -999.25         54.697          0.223          0.221          0.221        -999.25        -999.25          3.924          4.263          2.596        2.63134          2.631           0.23           0.23
     14891.5000        -999.25        -999.25        -999.25        -999.25        -999.25       2698.333        109.579         91.732        -999.25        107.684         99.042         51.087         90.147          0.146         98.914        -999.25         47.967          0.171          0.136          0.136        -999.25        -999.25          4.807          4.542          2.749        2.69119           2.69          0.185          0.185
     14892.0000        -999.25        -999.25        -999.25        -999.25        -999.25       2679.498        111.126        113.861        -999.25        109.205        103.393          59.15        111.893          0.161        109.603        -999.25         55.707          0.176          0.144          0.144        -999.25        -999.25          5.279          4.682          2.749        2.71171          2.712          0.186          0.186
     14892.5000        -999.25        -999.25        -999.25        -999.25        -999.25        2511.79        132.065        127.783        -999.25        129.782          115.4         74.305        125.574          0.251        135.472        -999.25         70.069          0.236          0.249          0.249        -999.25        -999.25          4.254          4.599          2.637        2.67409          2.675          0.221          0.221
     14893.0000        -999.25        -999.25        -999.25        -999.25        -999.25       2242.116        150.864        154.552        -999.25        148.256        146.233          87.46         151.88          0.331        154.585        -999.25         82.612          0.282          0.321          0.321        -999.25        -999.25          4.235          4.387          2.627         2.6245          2.625          0.284          0.284
     14893.5000        -999.25        -999.25        -999.25        -999.25        -999.25       1973.852        166.093        170.258        -999.25        163.222        155.504         92.655        167.314          0.367        159.316        -999.25         87.622          0.326          0.327          0.327        -999.25        -999.25          4.366          4.318          2.596        2.59543          2.595          0.311          0.311
     14894.0000        -999.25        -999.25        -999.25        -999.25        -999.25       1860.349        157.073         173.47        -999.25        154.358        163.324         91.918        170.471          0.364        152.435        -999.25          87.13          0.332          0.352          0.352        -999.25        -999.25          4.248          4.348            2.6        2.58688          2.587          0.346          0.346
     14894.5000        -999.25        -999.25        -999.25        -999.25        -999.25       1797.862        145.056        127.544        -999.25        142.549        144.687         88.076         125.34          0.339        142.261        -999.25         83.633          0.353          0.358          0.358        -999.25        -999.25          4.436          4.409          2.563        2.58175          2.582          0.345          0.345
     14895.0000        -999.25        -999.25        -999.25        -999.25        -999.25        1786.01        135.181        134.207        -999.25        132.845        138.456         85.386        131.887          0.364        138.449        -999.25          81.11          0.351          0.362          0.362        -999.25        -999.25          4.648          4.417          2.565        2.58859          2.588          0.354          0.354
     14895.5000        -999.25        -999.25        -999.25        -999.25        -999.25       1780.086        137.895        143.845        -999.25        135.512        129.245         84.809        141.358          0.354        136.975        -999.25         80.566          0.363          0.354          0.354        -999.25        -999.25          4.488           4.42          2.609        2.60056          2.601          0.345          0.345
     14896.0000        -999.25        -999.25        -999.25        -999.25        -999.25       1813.353         143.25        135.635        -999.25        140.773        134.209         89.699         133.29          0.341        140.137        -999.25           85.3          0.357          0.343          0.343        -999.25        -999.25          4.183          4.517          2.633        2.60398          2.603          0.351          0.351
     14896.5000        -999.25        -999.25        -999.25        -999.25        -999.25       1828.768        141.584         150.27        -999.25        139.137        139.373         88.121        147.672          0.337        139.039        -999.25         83.717          0.348          0.355          0.355        -999.25        -999.25          4.536          4.749          2.634        2.60056          2.601          0.351          0.351
     14897.0000        -999.25        -999.25        -999.25        -999.25        -999.25        1866.15        143.488        138.848        -999.25        141.007        139.626         91.092        136.448          0.338        138.536        -999.25         86.647          0.324          0.328          0.328        -999.25        -999.25          5.633           4.94          2.498        2.60398          2.604          0.339          0.339
     14897.5000        -999.25        -999.25        -999.25        -999.25        -999.25       1856.011        136.706        141.346        -999.25        134.343        130.551         87.543        138.903          0.316        134.531        -999.25         83.209          0.335          0.326          0.326        -999.25        -999.25          5.168          4.925          2.658         2.6245          2.624          0.321          0.321
