#------------------------------------------------------------------------------
# Created by    : mgeorge
# Created on    : 07/19/2023 10:29:38
#------------------------------------------------------------------------------
~Version Information Section
VERS.           2.0     :   CWLS log ASCII Standard - VERSION 2.0
WRAP.           NO      :   One line per depth step
~Well Information Section
#MNEM       .UNIT                                         VALUE :DESCRIPTION
#------------------------------------------------------------------------------
STRT        .FT                                           11964 :START DEPTH
STOP        .FT                                         16416.5 :STOP DEPTH
STEP        .FT                                             0.5 :STEP      
NULL        .                                           -999.25 :NULL      
COMP        .              ADVANCE ENERGY PARTNERS HAT MESA LLC :COMPANY   
WELL        .                                  DAGGER STATE SWD :WELL      
FLD         .                                               SWD :FIELD     
LOC         .                                                   :LOCATION  
CNTY        .                                               LEA :LOCATION  
STAT        .                                        NEW MEXICO :STATE     
CTRY        .                                     UNITED STATES :COUNTRY   
SRVC        .                                                   :SERVICE COMPANY
DATE        .                              1/27/2023 5:38:29 PM :LOG DATE  
API         .                                    30025458150000 :API NUMBER
UWI         .                                    30025458150000 :UNIQUE WELL ID
XCOORD      .                                  990031.214140587 :SURFACE X 
YCOORD      .                                  1027167.67164026 :SURFACE Y 
LAT         .                                        32.4498049 :LATITUDE  
LON         .                                      -103.6069526 :LONGITUDE 
ELEV        .FT                                            3803 :ELEVATION VALUE
ELEV_TYPE   .                                                KB :ELEVATION REFERENCE TYPE
~Curve Information Section
#MNEM       .UNIT                                      API CODE :CURVE DESCRIPTION
#------------------------------------------------------------------------------
DEPT        .FT                                                 :DEPTH     
AF90        .OHMM                                               :AF90      
AFCO90      .MM/M                                               :Array Induction Four Foot Conductivity A90 {F13.4}
AT90        .OHMM                                               :AT90      
ATCO90      .MM/M                                               :ATCO90    
ATRT        .OHMM                                               :ATRT      
CNTC        .HZ                                                 :CNTC      
ECGR        .GAPI                                               :ECGR      
EHGR        .GAPI                                               :EHGR      
GAMMA       .UNITLESS                                           :GAMMA     
GR          .GAPI                                               :GR        
GR_EDTC     .GAPI                                               :GR_EDTC   
HCGR        .GAPI                                               :HCGR      
HGR         .GAPI                                               :HGR       
HNPO        .CFCF                                               :HNPO      
HSGR        .GAPI                                               :HSGR      
ILD         .                                                   :ILD       
MCGR        .GAPI                                               :MCGR      
NPHI        .CFCF                                               :Nphi      
NPOR        .CFCF                                               :NPOR      
NPOR_LIM    .CFCF                                               :NPOR_LIM  
PE          .                                                   :PE        
PEF         .                                                   :PEF       
PEF8        .                                                   :PEF8      
PEFZ        .                                                   :PEFZ      
RHO8        .G/C3                                               :RHO8      
RHOB        .                                                   :RHOB      
RHOZ        .G/C3                                               :RHOZ      
TNPH        .CFCF                                               :TNPH      
TNPH_LIM    .CFCF                                               :TNPH_LIM  
~A        DEPTH           AF90         AFCO90           AT90         ATCO90           ATRT           CNTC           ECGR           EHGR          GAMMA             GR        GR_EDTC           HCGR            HGR           HNPO           HSGR            ILD           MCGR           NPHI           NPOR       NPOR_LIM             PE            PEF           PEF8           PEFZ           RHO8           RHOB           RHOZ           TNPH       TNPH_LIM
# ...
     15933.0000        -999.25        -999.25        -999.25        -999.25        -999.25       7260.023         14.054         10.708        -999.25         13.811         10.987          4.242         10.523         -0.009          8.131        -999.25          3.441         -0.002         -0.011         -0.011        -999.25        -999.25          5.608          4.694          2.701        2.70145          2.702         -0.007         -0.007
     15933.5000        -999.25        -999.25        -999.25        -999.25        -999.25        7234.25         15.006         15.765        -999.25         14.747          10.71          4.212         15.492         -0.005           9.92        -999.25          3.249         -0.003         -0.011         -0.011        -999.25        -999.25          3.905          4.404            2.7         2.6929          2.693         -0.008         -0.008
     15934.0000        -999.25        -999.25        -999.25        -999.25        -999.25       7155.358         19.051         18.917        -999.25         18.722           11.9          6.976          18.59         -0.009         12.959        -999.25          5.695         -0.002         -0.006         -0.006        -999.25        -999.25          3.695          4.196           2.67        2.67751          2.677         -0.007         -0.007
     15934.5000        -999.25        -999.25        -999.25        -999.25        -999.25       7079.105         19.386         22.844        -999.25         19.051         13.145          7.911         22.449              0         13.846        -999.25          6.505         -0.001         -0.001         -0.001        -999.25        -999.25           4.36          4.361          2.691         2.6758          2.676         -0.005         -0.005
     15935.0000        -999.25        -999.25        -999.25        -999.25        -999.25       6987.382         18.434         16.597        -999.25         18.115          12.98          7.652          16.31          0.001         13.023        -999.25          6.322         -0.001         -0.003         -0.003        -999.25        -999.25          4.758          4.778          2.683        2.68606          2.686         -0.005         -0.005
     15935.5000        -999.25        -999.25        -999.25        -999.25        -999.25       6943.518          17.72         16.062        -999.25         17.414         13.147          6.902         15.784         -0.009         12.017        -999.25          5.669         -0.001          -0.01          -0.01        -999.25        -999.25          5.577           5.15          2.699        2.69461          2.695         -0.006         -0.006
     15936.0000        -999.25        -999.25        -999.25        -999.25        -999.25       6963.659         21.535         20.702        -999.25         21.163         15.584          9.144         20.344              0         15.197        -999.25           7.61              0         -0.005         -0.005        -999.25        -999.25          5.067          5.264          2.684        2.70145          2.701         -0.005         -0.005
     15936.5000        -999.25        -999.25        -999.25        -999.25        -999.25       7050.303         20.866         27.841        -999.25         20.505         16.635          9.498          27.36         -0.002         16.057        -999.25          7.935          0.001              0              0        -999.25        -999.25          5.289          5.132          2.706           2.71           2.71         -0.003         -0.003
     15937.0000        -999.25        -999.25        -999.25        -999.25        -999.25       7092.509         19.676         14.158        -999.25         19.336         15.499          8.801         13.914         -0.005         16.621        -999.25          7.244              0         -0.001         -0.001        -999.25        -999.25          5.589          4.825          2.711        2.71855          2.718         -0.003         -0.003
     15937.5000        -999.25        -999.25        -999.25        -999.25        -999.25       7194.626         16.107         17.133        -999.25         15.828         11.375          6.821         16.837         -0.006         12.066        -999.25          5.619         -0.002         -0.007         -0.007        -999.25        -999.25          3.763          4.475            2.7        2.70487          2.705         -0.005         -0.005
     15938.0000        -999.25        -999.25        -999.25        -999.25        -999.25       7219.278         15.586         17.133        -999.25         15.317         11.182          5.897         16.837         -0.014         10.243        -999.25          4.843         -0.002         -0.009         -0.009        -999.25        -999.25          4.201           4.17          2.687        2.69803          2.698         -0.007         -0.007
     15938.5000        -999.25        -999.25        -999.25        -999.25        -999.25       7226.905         16.345         12.493        -999.25         16.062         14.087          6.627         12.277         -0.011         10.997        -999.25          5.484         -0.002         -0.012         -0.012        -999.25        -999.25           4.34          3.991          2.699        2.69803          2.697         -0.007         -0.007
     15939.0000        -999.25        -999.25        -999.25        -999.25        -999.25       7187.478         18.724         19.393        -999.25         18.401         18.069          9.048         19.058         -0.002         14.135        -999.25          7.585         -0.001         -0.003         -0.003        -999.25        -999.25          3.345           3.87          2.704           2.71           2.71         -0.007         -0.007
     15939.5000        -999.25        -999.25        -999.25        -999.25        -999.25       7183.993         19.557         24.272        -999.25         19.219         18.055          8.787         23.852          0.001         15.461        -999.25          7.171         -0.001         -0.002         -0.002        -999.25        -999.25          4.227          3.762          2.724        2.71342          2.713         -0.005         -0.005
     15940.0000        -999.25        -999.25        -999.25        -999.25        -999.25       7095.473         16.991         14.991        -999.25         16.698         13.989          7.635         14.732         -0.005          13.54        -999.25          6.212         -0.001         -0.006         -0.006        -999.25        -999.25          3.836          3.536          2.709         2.6929          2.693         -0.006         -0.006
     15940.5000        -999.25        -999.25        -999.25        -999.25        -999.25       7095.042         12.708         11.898        -999.25         12.489          9.851          5.596         11.692         -0.011         10.809        -999.25          4.456         -0.001          -0.01          -0.01        -999.25        -999.25          2.827          3.378          2.662         2.6758          2.676         -0.006         -0.006
     15941.0000        -999.25        -999.25        -999.25        -999.25        -999.25       7154.583         12.284         11.422        -999.25         12.072          7.596          5.436         11.224         -0.002          9.896        -999.25          4.464              0         -0.002         -0.002        -999.25        -999.25          2.833          3.462           2.65        2.66383          2.664         -0.005         -0.005
     15941.5000        -999.25        -999.25        -999.25        -999.25        -999.25       7279.126         12.902         13.742        -999.25         12.679          8.288          5.206         13.504         -0.003          9.456        -999.25          4.363              0          0.001          0.001        -999.25        -999.25          4.271          4.009          2.697        2.68435          2.684         -0.004         -0.004
