#------------------------------------------------------------------------------
# Created by    : mgeorge
# Created on    : 07/19/2023 10:29:23
#------------------------------------------------------------------------------
~Version Information Section
VERS.           2.0     :   CWLS log ASCII Standard - VERSION 2.0
WRAP.           NO      :   One line per depth step
~Well Information Section
#MNEM       .UNIT                                         VALUE :DESCRIPTION
#------------------------------------------------------------------------------
STRT        .FT                                             166 :START DEPTH
STOP        .FT                                           14648 :STOP DEPTH
STEP        .FT                                             0.5 :STEP      
NULL        .                                           -999.25 :NULL      
COMP        .                     DEVON ENERGY PRODUCTION CO LP :COMPANY   
WELL        .                          RIO BLANCO 4 FEDERAL COM :WELL      
FLD         .                               BELL LAKE NORTHEAST :FIELD     
LOC         .                                                   :LOCATION  
CNTY        .                                               LEA :LOCATION  
STAT        .                                        NEW MEXICO :STATE     
CTRY        .                                     UNITED STATES :COUNTRY   
SRVC        .                                                   :SERVICE COMPANY
DATE        .                               8/4/2022 3:29:17 PM :LOG DATE  
API         .                                    30025364250000 :API NUMBER
UWI         .                                    30025364250000 :UNIQUE WELL ID
XCOORD      .                                  1030633.57202521 :SURFACE X 
YCOORD      .                                  982685.374946431 :SURFACE Y 
LAT         .                                        32.3308251 :LATITUDE  
LON         .                                      -103.4713531 :LONGITUDE 
ELEV        .FT                                            3422 :ELEVATION VALUE
ELEV_TYPE   .                                                KB :ELEVATION REFERENCE TYPE
~Curve Information Section
#MNEM       .UNIT                                      API CODE :CURVE DESCRIPTION
#------------------------------------------------------------------------------
DEPT        .FT                                                 :DEPTH     
AF90        .OHMM                                               :AF90      
ASF90       .OHMM                                               :ARRAY INDUCTION FOUR FOOT RESISTIVITY A90
DRESWS      .OHMM                                               :DEEP INDUCTION RESISTIVITY
GR          .GAPI                                               :GR        
GRR         .GAPI                                               :GRR       
GRS         .GAPI                                               :GRS       
GRWS        .GAPI                                               :GAMMA RAY FROM SONIC LOG
RLA5        .OHMM                                               :RLA5      
~A        DEPTH           AF90          ASF90         DRESWS             GR            GRR            GRS           GRWS           RLA5
# ...
     12585.5000        -999.25        -999.25       7895.632        47.8571         21.975        19.9811        32.4541       7895.632
     12586.0000        -999.25        -999.25       6070.801        44.1071        14.1811        14.0356        19.9811       6070.801
     12586.5000        -999.25        -999.25       2644.154        38.7719        12.4177        17.2342        14.0356       2644.154
     12587.0000        -999.25        -999.25       197.8167        33.8596        17.7189        22.8344        17.2342       197.8167
     12587.5000        -999.25        -999.25        88.5666        30.3509        24.5417        31.9901        22.8344        88.5666
     12588.0000        -999.25        -999.25       367.9579        27.7778         38.626        41.5523        31.9901       367.9579
     12588.5000        -999.25        -999.25       102.8974        26.2963        52.6385        48.6245        41.5523       102.8974
     12589.0000        -999.25        -999.25        40.9319        28.3333        62.8887        50.8072        48.6245        40.9319
     12589.5000        -999.25        -999.25        28.2499        32.2807        64.2028        46.3407        50.8072        28.2499
     12590.0000        -999.25        -999.25         36.101         34.386        56.1384        40.9434        46.3407         36.101
     12590.5000        -999.25        -999.25        62.4429        35.2632        50.4188        37.8586        40.9434        62.4429
     12591.0000        -999.25        -999.25        96.2273        41.0714        43.4667        35.6987        37.8586        96.2273
     12591.5000        -999.25        -999.25        91.4589        49.8214        37.9681        32.5898        35.6987        91.4589
     12592.0000        -999.25        -999.25       125.7629          61.25         36.571        29.1719        32.5898       125.7629
     12592.5000        -999.25        -999.25       103.4768        58.3929        36.1227        29.8218        29.1719       103.4768
     12593.0000        -999.25        -999.25        60.4074             50        38.2287        32.3723        29.8218        60.4074
     12593.5000        -999.25        -999.25        38.8015        40.3571        40.5924        34.7644        32.3723        38.8015
     12594.0000        -999.25        -999.25        28.5176        37.3684        41.4965         35.205        34.7644        28.5176
     12594.5000        -999.25        -999.25        69.4657        49.2857        40.7403        35.4756         35.205        69.4657
     12595.0000        -999.25        -999.25        581.357        49.8214        41.3462        40.3435        35.4756        581.357
     12595.5000        -999.25        -999.25        43.0186        41.9643        45.2672        48.9564        40.3435        43.0186
     12596.0000        -999.25        -999.25        30.5001        35.2632        65.1071        58.2986        48.9564        30.5001
     12596.5000        -999.25        -999.25       286.1916        35.7895        75.5155        58.1665        58.2986       286.1916
     12597.0000        -999.25        -999.25       891.2515        39.4737        77.3515        51.3549        58.1665       891.2515
     12597.5000        -999.25        -999.25       158.8181        44.1071        69.4764        45.5223        51.3549       158.8181
     12598.0000        -999.25        -999.25       631.6472        45.8929        58.2323        39.0902        45.5223       631.6472
     12598.5000        -999.25        -999.25       132.8104        44.4643        50.5803        38.9262        39.0902       132.8104
     12599.0000        -999.25        -999.25        49.3647        40.7143        48.7207        39.6519        38.9262        49.3647
     12599.5000        -999.25        -999.25        31.8028        37.0175        48.4948        38.6337        39.6519        31.8028
     12600.0000        -999.25        -999.25        64.4814        33.5088        46.6157        34.8581        38.6337        64.4814
     12600.5000        -999.25        -999.25         70.962        31.5789        43.4829         32.015        34.8581         70.962
     12601.0000        -999.25        -999.25        94.3933             30          40.65        33.1248         32.015        94.3933
     12601.5000        -999.25        -999.25         39.426        28.5185        39.5173         37.639        33.1248         39.426
     12602.0000        -999.25        -999.25        32.8732        28.5185        40.6934        41.1003         37.639        32.8732
     12602.5000        -999.25        -999.25         30.259        32.9825        43.3306        40.4115        41.1003         30.259
     12603.0000        -999.25        -999.25        45.9486        39.4737        44.3439        37.1509        40.4115        45.9486
     12603.5000        -999.25        -999.25        56.3034        44.1071        41.4116        35.0247        37.1509        56.3034
     12604.0000        -999.25        -999.25         61.451        47.8571        40.4955        34.7004        35.0247         61.451
     12604.5000        -999.25        -999.25        41.2481        50.7143        42.0814        34.6085        34.7004        41.2481
     12605.0000        -999.25        -999.25        49.7991        53.9286        42.5339         33.243        34.6085        49.7991
     12605.5000        -999.25        -999.25        87.4698        53.2143        39.6332        29.6242         33.243        87.4698
     12606.0000        -999.25        -999.25        63.9502        47.8571        36.1376        29.1367        29.6242        63.9502
     12606.5000        -999.25        -999.25        86.6839        40.5357        35.5958        34.9157        29.1367        86.6839
     12607.0000        -999.25        -999.25        56.7058        33.5088        39.5511        39.9953        34.9157        56.7058
     12607.5000        -999.25        -999.25         37.387         27.963        46.3119        44.2681        39.9953         37.387
     12608.0000        -999.25        -999.25        26.0172        26.2963        53.0727        45.8421        44.2681        26.0172
     12608.5000        -999.25        -999.25        21.3458        28.5185        59.9397        47.4585        45.8421        21.3458
     12609.0000        -999.25        -999.25        13.1598        29.8148        62.0885         50.852        47.4585        13.1598
     12609.5000        -999.25        -999.25         10.559        28.1481        63.5056        53.1005         50.852         10.559
     12610.0000        -999.25        -999.25         9.7146        26.6667        65.5893        51.6074        53.1005         9.7146
     12610.5000        -999.25        -999.25       187.9695        25.5556        67.1889        44.8814        51.6074       187.9695
     12611.0000        -999.25        -999.25       2257.257         22.963        64.4335        37.6069        44.8814       2257.257
     12611.5000        -999.25        -999.25       44993.43        18.9474        58.5219        33.0897        37.6069       44993.43
     12612.0000        -999.25        -999.25       151.6165        15.2632        46.0493        31.6189        33.0897       151.6165
     12612.5000        -999.25        -999.25         77.728         12.807        36.8881        30.1689        31.6189         77.728
     12613.0000        -999.25        -999.25       146.0331        12.2807        35.1469        27.8063        30.1689       146.0331
     12613.5000        -999.25        -999.25       478.8255        11.5789        35.7466        26.1042        27.8063       478.8255
     12614.0000        -999.25        -999.25        16.7838        10.1754        32.4703        27.2175        26.1042        16.7838
     12614.5000        -999.25        -999.25       100.5594        11.2281         30.282        28.0634        27.2175       100.5594
