#------------------------------------------------------------------------------
# Created by    : mgeorge
# Created on    : 07/19/2023 10:29:38
#------------------------------------------------------------------------------
~Version Information Section
VERS.           2.0     :   CWLS log ASCII Standard - VERSION 2.0
WRAP.           NO      :   One line per depth step
~Well Information Section
#MNEM       .UNIT                                         VALUE :DESCRIPTION
#------------------------------------------------------------------------------
STRT        .FT                                           11964 :START DEPTH
STOP        .FT                                         16416.5 :STOP DEPTH
STEP        .FT                                             0.5 :STEP      
NULL        .                                           -999.25 :NULL      
COMP        .              ADVANCE ENERGY PARTNERS HAT MESA LLC :COMPANY   
WELL        .                                  DAGGER STATE SWD :WELL      
FLD         .                                               SWD :FIELD     
LOC         .                                                   :LOCATION  
CNTY        .                                               LEA :LOCATION  
STAT        .                                        NEW MEXICO :STATE     
CTRY        .                                     UNITED STATES :COUNTRY   
SRVC        .                                                   :SERVICE COMPANY
DATE        .                              1/27/2023 5:38:29 PM :LOG DATE  
API         .                                    30025458150000 :API NUMBER
UWI         .                                    30025458150000 :UNIQUE WELL ID
XCOORD      .                                  990031.214140587 :SURFACE X 
YCOORD      .                                  1027167.67164026 :SURFACE Y 
LAT         .                                        32.4498049 :LATITUDE  
LON         .                                      -103.6069526 :LONGITUDE 
ELEV        .FT                                            3803 :ELEVATION VALUE
ELEV_TYPE   .                                                KB :ELEVATION REFERENCE TYPE
~Curve Information Section
#MNEM       .UNIT                                      API CODE :CURVE DESCRIPTION
#------------------------------------------------------------------------------
DEPT        .FT                                                 :DEPTH     
AF90        .OHMM                                               :AF90      
AFCO90      .MM/M                                               :Array Induction Four Foot Conductivity A90 {F13.4}
AT90        .OHMM                                               :AT90      
ATCO90      .MM/M                                               :ATCO90    
ATRT        .OHMM                                               :ATRT      
CNTC        .HZ                                                 :CNTC      
ECGR        .GAPI                                               :ECGR      
EHGR        .GAPI                                               :EHGR      
GAMMA       .UNITLESS                                           :GAMMA     
GR          .GAPI                                               :GR        
GR_EDTC     .GAPI                                               :GR_EDTC   
HCGR        .GAPI                                               :HCGR      
HGR         .GAPI                                               :HGR       
HNPO        .CFCF                                               :HNPO      
HSGR        .GAPI                                               :HSGR      
ILD         .                                                   :ILD       
MCGR        .GAPI                                               :MCGR      
NPHI        .CFCF                                               :Nphi      
NPOR        .CFCF                                               :NPOR      
NPOR_LIM    .CFCF                                               :NPOR_LIM  
PE          .                                                   :PE        
PEF         .                                                   :PEF       
PEF8        .                                                   :PEF8      
PEFZ        .                                                   :PEFZ      
RHO8        .G/C3                                               :RHO8      
RHOB        .                                                   :RHOB      
RHOZ        .G/C3                                               :RHOZ      
TNPH        .CFCF                                               :TNPH      
TNPH_LIM    .CFCF                                               :TNPH_LIM  
~A        DEPTH           AF90         AFCO90           AT90         ATCO90           ATRT           CNTC           ECGR           EHGR          GAMMA             GR        GR_EDTC           HCGR            HGR           HNPO           HSGR            ILD           MCGR           NPHI           NPOR       NPOR_LIM             PE            PEF           PEF8           PEFZ           RHO8           RHOB           RHOZ           TNPH       TNPH_LIM
# ...
     14061.0000        -999.25        -999.25        -999.25        -999.25        -999.25       5242.753         42.832         52.469        -999.25         42.091         42.985         16.431         51.562          0.073         41.038        -999.25         13.366           0.03           0.07           0.07        -999.25        -999.25          7.151          7.529          2.792        2.74078          2.741          0.038          0.038
     14061.5000        -999.25        -999.25        -999.25        -999.25        -999.25       5205.325         39.857         33.195        -999.25         39.168         32.971         11.997         32.621          0.048         33.215        -999.25           9.56          0.027          0.043          0.043        -999.25        -999.25          7.809          7.659           2.74        2.72197          2.721          0.032          0.032
     14062.0000        -999.25        -999.25        -999.25        -999.25        -999.25       5482.665         31.648         33.908        -999.25         31.101         24.251          9.837         33.322          0.021         25.602        -999.25           7.96          0.014          0.018          0.018        -999.25        -999.25           7.96          7.622          2.766        2.73223          2.731          0.024          0.024
     14062.5000        -999.25        -999.25        -999.25        -999.25        -999.25       5818.402         29.268         27.841        -999.25         28.762         20.544          10.02         27.359          0.009         23.136        -999.25          8.311           0.01          0.012          0.012        -999.25        -999.25          6.968          7.457          2.783        2.75104          2.751          0.017          0.017
     14063.0000        -999.25        -999.25        -999.25        -999.25        -999.25       5953.203         26.413         25.402        -999.25         25.956         23.059          10.52         24.963          0.004         22.555        -999.25          8.838          0.007          0.005          0.005        -999.25        -999.25          7.171          7.363          2.743        2.77498          2.774          0.015          0.015
     14063.5000        -999.25        -999.25        -999.25        -999.25        -999.25       5852.894         26.502         25.342        -999.25         26.044         23.532           12.2         24.904          0.012         23.322        -999.25          10.37          0.007          0.008          0.008        -999.25        -999.25           7.88          7.397           2.66        2.75788          2.758          0.015          0.015
     14064.0000        -999.25        -999.25        -999.25        -999.25        -999.25       5657.544         28.049         28.674        -999.25         27.564         22.619         13.621         28.178          0.023         23.424        -999.25         11.669           0.01           0.02           0.02        -999.25        -999.25          7.346          7.547          2.757         2.7271          2.727          0.018          0.018
     14064.5000        -999.25        -999.25        -999.25        -999.25        -999.25       5398.146          29.12         30.696        -999.25         28.616         22.831         14.896         30.165          0.024         24.268        -999.25         12.844          0.017          0.029          0.029        -999.25        -999.25          7.581          7.637          2.738        2.68948          2.689          0.022          0.022
     14065.0000        -999.25        -999.25        -999.25        -999.25        -999.25       5246.067         30.681         28.555        -999.25         30.151         23.633          16.66         28.061          0.034         26.344        -999.25         14.393          0.023          0.036          0.036        -999.25        -999.25          7.805           7.48          2.679        2.68435          2.685          0.028          0.028
     14065.5000        -999.25        -999.25        -999.25        -999.25        -999.25        5200.54         30.919         33.195        -999.25         30.385         26.649         17.217         32.621          0.037         27.368        -999.25         14.902          0.024          0.038          0.038        -999.25        -999.25          6.921           7.17          2.726        2.70145          2.701          0.033          0.033
     14066.0000        -999.25        -999.25        -999.25        -999.25        -999.25        5229.97         30.324          31.41        -999.25           29.8         27.258         18.249         30.867          0.028         27.693        -999.25         15.968           0.02          0.028          0.028        -999.25        -999.25          6.761          6.882           2.71         2.7271          2.726          0.033          0.033
     14066.5000        -999.25        -999.25        -999.25        -999.25        -999.25       5310.386         28.911          26.77        -999.25         28.412         26.675         17.438         26.307           0.03         26.233        -999.25         15.316          0.016          0.028          0.028        -999.25        -999.25          6.826          6.843          2.712        2.73394          2.734           0.03           0.03
     14067.0000        -999.25        -999.25        -999.25        -999.25        -999.25       5404.144         27.699         28.555        -999.25         27.221         24.433         16.347         28.061          0.025         23.656        -999.25         14.406          0.014          0.028          0.028        -999.25        -999.25          7.076          6.961          2.686        2.71855          2.719          0.026          0.026
     14067.5000        -999.25        -999.25        -999.25        -999.25        -999.25       5413.265          27.58         27.484        -999.25         27.104         25.014         17.052         27.009          0.025         23.955        -999.25         15.049          0.014          0.021          0.021        -999.25        -999.25          6.954          7.156          2.714         2.6929          2.693          0.022          0.022
     14068.0000        -999.25        -999.25        -999.25        -999.25        -999.25       5419.132         27.342         26.413        -999.25          26.87         30.104         19.042         25.956          0.016         28.362        -999.25         16.685          0.015          0.018          0.018        -999.25        -999.25          7.362          7.238          2.702        2.67238          2.672          0.022          0.022
     14068.5000        -999.25        -999.25        -999.25        -999.25        -999.25        5481.07         32.957         27.841        -999.25         32.387          37.27         22.957         27.359          0.025         34.144        -999.25         20.109          0.023          0.027          0.027        -999.25        -999.25          7.525          7.134          2.695        2.68093          2.682          0.025          0.025
     14069.0000        -999.25        -999.25        -999.25        -999.25        -999.25       5719.963         33.633         44.617        -999.25         33.052         38.682         20.987         43.846          0.044         32.901        -999.25         18.306          0.023          0.042          0.042        -999.25        -999.25          6.272           6.88          2.701        2.70316          2.704          0.031          0.031
     14069.5000        -999.25        -999.25        -999.25        -999.25        -999.25       5957.411          30.54         28.911        -999.25         30.012         28.416         14.108         28.412          0.032         24.708        -999.25         12.155          0.015          0.036          0.036        -999.25        -999.25          6.938          6.691          2.644        2.71684          2.718          0.027          0.027
