#------------------------------------------------------------------------------
# Created by    : mgeorge
# Created on    : 07/19/2023 10:29:38
#------------------------------------------------------------------------------
~Version Information Section
VERS.           2.0     :   CWLS log ASCII Standard - VERSION 2.0
WRAP.           NO      :   One line per depth step
~Well Information Section
#MNEM       .UNIT                                         VALUE :DESCRIPTION
#------------------------------------------------------------------------------
STRT        .FT                                           11964 :START DEPTH
STOP        .FT                                         16416.5 :STOP DEPTH
STEP        .FT                                             0.5 :STEP      
NULL        .                                           -999.25 :NULL      
COMP        .              ADVANCE ENERGY PARTNERS HAT MESA LLC :COMPANY   
WELL        .                                  DAGGER STATE SWD :WELL      
FLD         .                                               SWD :FIELD     
LOC         .                                                   :LOCATION  
CNTY        .                                               LEA :LOCATION  
STAT        .                                        NEW MEXICO :STATE     
CTRY        .                                     UNITED STATES :COUNTRY   
SRVC        .                                                   :SERVICE COMPANY
DATE        .                              1/27/2023 5:38:29 PM :LOG DATE  
API         .                                    30025458150000 :API NUMBER
UWI         .                                    30025458150000 :UNIQUE WELL ID
XCOORD      .                                  990031.214140587 :SURFACE X 
YCOORD      .                                  1027167.67164026 :SURFACE Y 
LAT         .                                        32.4498049 :LATITUDE  
LON         .                                      -103.6069526 :LONGITUDE 
ELEV        .FT                                            3803 :ELEVATION VALUE
ELEV_TYPE   .                                                KB :ELEVATION REFERENCE TYPE
~Curve Information Section
#MNEM       .UNIT                                      API CODE :CURVE DESCRIPTION
#------------------------------------------------------------------------------
DEPT        .FT                                                 :DEPTH     
AF90        .OHMM                                               :AF90      
AFCO90      .MM/M                                               :Array Induction Four Foot Conductivity A90 {F13.4}
AT90        .OHMM                                               :AT90      
ATCO90      .MM/M                                               :ATCO90    
ATRT        .OHMM                                               :ATRT      
CNTC        .HZ                                                 :CNTC      
ECGR        .GAPI                                               :ECGR      
EHGR        .GAPI                                               :EHGR      
GAMMA       .UNITLESS                                           :GAMMA     
GR          .GAPI                                               :GR        
GR_EDTC     .GAPI                                               :GR_EDTC   
HCGR        .GAPI                                               :HCGR      
HGR         .GAPI                                               :HGR       
HNPO        .CFCF                                               :HNPO      
HSGR        .GAPI                                               :HSGR      
ILD         .                                                   :ILD       
MCGR        .GAPI                                               :MCGR      
NPHI        .CFCF                                               :Nphi      
NPOR        .CFCF                                               :NPOR      
NPOR_LIM    .CFCF                                               :NPOR_LIM  
PE          .                                                   :PE        
PEF         .                                                   :PEF       
PEF8        .                                                   :PEF8      
PEFZ        .                                                   :PEFZ      
RHO8        .G/C3                                               :RHO8      
RHOB        .                                                   :RHOB      
RHOZ        .G/C3                                               :RHOZ      
TNPH        .CFCF                                               :TNPH      
TNPH_LIM    .CFCF                                               :TNPH_LIM  
~A        DEPTH           AF90         AFCO90           AT90         ATCO90           ATRT           CNTC           ECGR           EHGR          GAMMA             GR        GR_EDTC           HCGR            HGR           HNPO           HSGR            ILD           MCGR           NPHI           NPOR       NPOR_LIM             PE            PEF           PEF8           PEFZ           RHO8           RHOB           RHOZ           TNPH       TNPH_LIM
# ...
     13431.0000         45.403         22.025         44.684          22.38          73.48       3508.463         72.576         77.096         0.0665         71.321         75.912         40.145         75.763          0.084          72.58          73.48         37.098          0.091          0.078          0.078         3.6888         3.6888          3.217          3.324          2.593        2.59372          2.594          0.096          0.096
     13431.5000         42.067         23.772         40.122         24.924         67.191       3419.385         72.694         68.532         0.0758         71.438         78.538         42.586         67.347          0.089         73.848         67.191          39.49           0.11          0.094          0.094         3.7401         3.7401          3.463          3.481          2.591         2.5903           2.59          0.103          0.103
     13432.0000           39.5         25.317         36.818          27.16         62.939       3315.519         72.576         72.456         0.1088         71.321         82.243         46.363         71.203          0.139         80.368         62.939         43.024          0.142          0.142          0.142         3.6951         3.6951          3.623           3.62          2.597        2.57833          2.579          0.124          0.124
     13432.5000         37.745         26.494         34.813         28.725         59.319       3214.239         80.666         76.741         0.0786         79.272         86.034         46.977         75.414          0.159         82.383         59.319         43.566          0.149          0.157          0.157         3.6241         3.6241          3.945          3.676           2.56         2.5732          2.573          0.142          0.142
     13433.0000         36.769         27.197         34.022         29.393         58.362       3109.075          82.57         92.801         0.0944         81.143         91.371         48.989         91.197          0.147         86.157         58.362         45.422          0.147          0.143          0.143         3.6392         3.6392          3.519          3.629          2.563        2.56465          2.564          0.142          0.142
     13433.5000           36.5         27.397         34.279         29.172          58.46       3081.226         86.496         78.168         0.1036             85         90.236         46.083         76.816          0.123         83.796          58.46         42.624          0.146          0.124          0.124         3.7601         3.7601          3.447            3.6          2.553        2.56465          2.565          0.141          0.141
     13434.0000         36.855         27.134         35.343         28.294          59.58       3097.052         84.473         88.518         0.0948         83.013         87.468         46.581         86.988          0.138         81.838          59.58         43.227          0.152          0.154          0.154         3.8596         3.8596          3.818          3.639          2.531        2.56123          2.561          0.146          0.146
     13434.5000         37.771         26.475         36.926         27.081         61.322       3135.511         84.354         86.734         0.0976         82.896         74.466          45.83         85.235          0.179         77.972         61.322         42.616           0.16          0.165          0.165         3.8417         3.8417          3.818          3.681          2.598        2.56636          2.567          0.148          0.148
     13435.0000         39.227         25.493          38.84         25.746         63.614       3173.735         81.142         77.811         0.1021         79.739         74.247         45.651         76.466          0.136         75.474         63.614         42.503          0.142          0.147          0.147         3.7207         3.7207          3.655          3.638          2.582        2.56978           2.57          0.143          0.143
     13435.5000         41.246         24.245         41.182         24.282         66.891       3227.808         80.785         78.881         0.0894         79.388         73.115         44.934         77.518          0.132         75.661         66.891         41.754          0.131          0.122          0.122         3.6021         3.6021          3.361          3.541          2.578        2.56807          2.568          0.127          0.127
     13436.0000         43.871         22.794         44.332         22.557         72.144       3268.945         87.752         85.663         0.0765         86.235         80.865         46.225         84.182          0.103         80.792         72.144         42.834          0.127          0.108          0.108         3.5883         3.5883          3.313          3.478          2.586        2.56978          2.569          0.124          0.124
     13436.5000         47.098         21.232         48.657         20.552         77.973         3316.3         92.512         98.572         0.0659         90.912         82.175         47.327         96.868          0.128         84.387         77.973         43.776          0.139          0.129          0.129         3.6644         3.6644          3.481          3.526           2.55        2.57662          2.576          0.127          0.127
     13437.0000         50.798         19.686         54.032         18.508         84.947       3396.161         88.823         93.159         0.0691         87.288          76.89          43.47         91.549          0.156         82.079         84.947         40.042          0.139          0.154          0.154         3.7484         3.7484          3.771          3.621          2.578         2.5903           2.59          0.134          0.134
     13437.5000          54.66         18.295         59.432         16.826         92.734        3443.63         79.595         74.598         0.0585          78.22         74.697         39.436         73.308          0.125         73.139         92.734         36.359          0.128          0.129          0.129         3.7903         3.7903           3.87          3.735          2.624        2.59543          2.596          0.123          0.123
     13438.0000          58.22         17.176         63.258         15.808            100       3529.395         72.814          71.03         0.0612         71.555         67.903         35.373         69.802          0.101         66.756            100         32.551          0.103          0.101          0.101         3.8299         3.8299           3.74          3.788          2.599        2.59543          2.595          0.112          0.112
     13438.5000         61.015         16.389         64.608         15.478        104.001       3597.206         74.836         72.813         0.0466         73.542         69.977         36.513         71.555          0.094         68.306        104.001         33.625          0.097          0.091          0.091         3.8663         3.8663           3.51          3.755          2.564         2.5903          2.591          0.099          0.099
     13439.0000         62.767         15.932          64.05         15.613        103.958       3598.604         79.119         80.666         0.0321         77.751         68.734         39.237         79.271          0.093         73.294        103.958           36.2          0.102          0.093          0.093         3.8652         3.8652          4.105          3.686          2.593        2.57662          2.577          0.101          0.101
     13439.5000         63.468         15.756         62.752         15.936        103.336       3520.853         80.837         83.878         0.0449          79.44         74.576         38.811         82.428          0.119         77.072        103.336         35.607          0.114           0.11           0.11         3.8295         3.8295          3.375          3.599          2.572        2.56807          2.567          0.108          0.108
