#------------------------------------------------------------------------------
# Created by    : mgeorge
# Created on    : 07/19/2023 10:29:21
#------------------------------------------------------------------------------
~Version Information Section
VERS.           2.0     :   CWLS log ASCII Standard - VERSION 2.0
WRAP.           NO      :   One line per depth step
~Well Information Section
#MNEM       .UNIT                                         VALUE :DESCRIPTION
#------------------------------------------------------------------------------
STRT        .FT                                             170 :START DEPTH
STOP        .FT                                            8880 :STOP DEPTH
STEP        .FT                                             0.5 :STEP      
NULL        .                                           -999.25 :NULL      
COMP        .                                       OXY USA INC :COMPANY   
WELL        .                             COVINGTON `A` FEDERAL :WELL      
FLD         .                                     RED TANK WEST :FIELD     
LOC         .                                                   :LOCATION  
CNTY        .                                               LEA :LOCATION  
STAT        .                                        NEW MEXICO :STATE     
CTRY        .                                     UNITED STATES :COUNTRY   
SRVC        .                                                   :SERVICE COMPANY
DATE        .                              8/3/2022 10:24:51 AM :LOG DATE  
API         .                                    30025349870000 :API NUMBER
UWI         .                                    30025349870000 :UNIQUE WELL ID
XCOORD      .                                  979541.866465641 :SURFACE X 
YCOORD      .                                  991455.566234473 :SURFACE Y 
LAT         .                                        32.3508526 :LATITUDE  
LON         .                                      -103.6374947 :LONGITUDE 
ELEV        .FT                                            3773 :ELEVATION VALUE
ELEV_TYPE   .                                                KB :ELEVATION REFERENCE TYPE
~Curve Information Section
#MNEM       .UNIT                                      API CODE :CURVE DESCRIPTION
#------------------------------------------------------------------------------
DEPT        .FT                                                 :DEPTH     
AF90        .OHMM                                               :AF90      
GR          .GAPI                                               :GR        
ILD         .                                                   :ILD       
NPHI        .                                                   :Nphi      
PE          .                                                   :PE        
PEFZ        .BE                                                 :PEFZ      
RHOB        .                                                   :RHOB      
RHOZ        .G/C3                                               :RHOZ      
TNPH        .V/V                                                :TNPH      
~A        DEPTH           AF90             GR            ILD           NPHI             PE           PEFZ           RHOB           RHOZ           TNPH
# ...
      5814.5000         2.4196        64.2667         2.4196         0.1668         2.7397         2.7397         2.3933         2.3933         0.1668
      5815.0000         2.8561           66.4         2.8561         0.1544          2.726          2.726          2.402          2.402         0.1544
      5815.5000         3.8088        68.5333         3.8088         0.1403         2.7671         2.7671         2.4176         2.4176         0.1403
      5816.0000         5.2811           70.8         5.2811         0.1241         2.8493         2.8493         2.4553         2.4553         0.1241
      5816.5000         7.0426        76.5333         7.0426         0.1059         3.0132         3.0132         2.5127         2.5127         0.1059
      5817.0000              8        81.3333              8         0.1005          3.185          3.185         2.5767         2.5767         0.1005
      5817.5000         8.0998        83.4667         8.0998         0.0992         3.3037         3.3037         2.6034         2.6034         0.0992
      5818.0000         9.5754        83.4667         9.5754         0.0992         3.3959         3.3959         2.5947         2.5947         0.0992
      5818.5000        10.7709        82.5333        10.7709         0.1019         3.3033         3.3033         2.5727         2.5727         0.1019
      5819.0000        10.7045        81.3333        10.7045         0.1003         3.1977         3.1977         2.5513         2.5513         0.1003
      5819.5000        10.7045        80.2667        10.7045         0.0981          3.079          3.079         2.5453         2.5453         0.0981
      5820.0000        11.0409        75.0667        11.0409         0.0931          3.079          3.079          2.546          2.546         0.0931
      5820.5000         25.259           65.6         25.259         0.0803         3.2366         3.2366         2.6034         2.6034         0.0803
      5821.0000         49.691             58         49.691         0.0541         3.5653         3.5653         2.6466         2.6466         0.0541
      5821.5000        47.8769        50.6667        47.8769         0.0387         3.8814         3.8814           2.69           2.69         0.0387
      5822.0000        41.5156        45.3945        41.5156         0.0299           4.16           4.16         2.7347         2.7347         0.0299
      5822.5000        34.5352        40.7825        34.5352         0.0264         4.4267         4.4267         2.7347         2.7347         0.0264
      5823.0000        28.9143        37.4045        28.9143         0.0277         4.4533         4.4533          2.726          2.726         0.0277
      5823.5000        26.8594        37.1308        26.8594         0.0299         4.4667         4.4667         2.7167         2.7167         0.0299
      5824.0000        24.7977        39.1423        24.7977         0.0384         4.4933         4.4933          2.716          2.716         0.0384
      5824.5000        24.6458        41.7089        24.6458         0.0481           4.52           4.52          2.716          2.716         0.0481
      5825.0000        24.6458        50.6667        24.6458         0.0589         4.5467         4.5467         2.7147         2.7147         0.0589
      5825.5000        20.2473        61.8667        20.2473         0.0725           4.32           4.32          2.692          2.692         0.0725
      5826.0000        16.5086        74.6667        16.5086         0.0901              4              4         2.6687         2.6687         0.0901
      5826.5000        13.5426           79.6        13.5426         0.1075         3.6418         3.6418         2.6453         2.6453         0.1075
      5827.0000        11.3176        79.4667        11.3176         0.1109         3.1636         3.1636         2.6216         2.6216         0.1109
      5827.5000         9.7551        80.2667         9.7551         0.1203         2.9901         2.9901         2.6061         2.6061         0.1203
      5828.0000          9.635             82          9.635         0.1322         2.8404         2.8404          2.582          2.582         0.1322
      5828.5000         9.5163        85.7333         9.5163         0.1464          2.745          2.745         2.5853         2.5853         0.1464
      5829.0000        10.5076           86.8        10.5076         0.1565         2.8121         2.8121         2.5967         2.5967         0.1565
      5829.5000        12.8884           89.2        12.8884         0.1539         2.8792         2.8792         2.6081         2.6081         0.1539
      5830.0000         15.327        90.2667         15.327          0.137         2.9597         2.9597         2.6196         2.6196          0.137
      5830.5000        15.5178        87.4667        15.5178           0.12         3.0133         3.0133         2.6345         2.6345           0.12
      5831.0000        13.7112        82.6667        13.7112         0.0976         3.0133         3.0133         2.6426         2.6426         0.0976
      5831.5000        11.0409           78.4        11.0409         0.0851         3.0133         3.0133         2.6284         2.6284         0.0851
      5832.0000         8.8891        75.8667         8.8891         0.0888         2.9323         2.9323         2.6135         2.6135         0.0888
      5832.5000         6.9142        75.8667         6.9142         0.1037          2.878          2.878          2.592          2.592         0.1037
      5833.0000         5.3783        75.8667         5.3783         0.1187         2.8237         2.8237           2.57           2.57         0.1187
      5833.5000         4.1774           74.4         4.1774         0.1338         2.7693         2.7693         2.5487         2.5487         0.1338
      5834.0000         3.3494           72.8         3.3494         0.1464         2.7012         2.7012         2.5273         2.5273         0.1464
      5834.5000         2.6047        71.8667         2.6047         0.1563         2.6466         2.6466         2.5053         2.5053         0.1563
      5835.0000         2.3754        71.8667         2.3754         0.1654         2.5783         2.5783         2.4767         2.4767         0.1654
      5835.5000         2.2066        71.8667         2.2066         0.1689         2.5236         2.5236         2.4607         2.4607         0.1689
      5836.0000         2.0247        71.8667         2.0247         0.1695         2.4552         2.4552          2.456          2.456         0.1695
      5836.5000         1.8926        71.8667         1.8926         0.1703         2.4276         2.4276         2.4493         2.4493         0.1703
      5837.0000           1.78           70.8           1.78         0.1711         2.4135         2.4135         2.4426         2.4426         0.1711
      5837.5000         1.6947        69.3333         1.6947         0.1749         2.3858         2.3858         2.4351         2.4351         0.1749
      5838.0000         1.5939           67.6         1.5939         0.1867         2.3581         2.3581         2.4257         2.4257         0.1867
      5838.5000         1.5083        67.7333         1.5083         0.1949          2.344          2.344         2.4155         2.4155         0.1949
      5839.0000         1.4186           70.8         1.4186         0.1971         2.2889         2.2889         2.4061         2.4061         0.1971
      5839.5000         1.3424        72.2667         1.3424         0.1992         2.2199         2.2199          2.396          2.396         0.1992
      5840.0000         1.2625        72.1333         1.2625         0.2011         2.2468         2.2468         2.3853         2.3853         0.2011
      5840.5000         1.1946         71.597         1.1946         0.2019         2.2877         2.2877          2.374          2.374         0.2019
