#------------------------------------------------------------------------------
# Created by    : mgeorge
# Created on    : 07/19/2023 10:29:38
#------------------------------------------------------------------------------
~Version Information Section
VERS.           2.0     :   CWLS log ASCII Standard - VERSION 2.0
WRAP.           NO      :   One line per depth step
~Well Information Section
#MNEM       .UNIT                                         VALUE :DESCRIPTION
#------------------------------------------------------------------------------
STRT        .FT                                           11964 :START DEPTH
STOP        .FT                                         16416.5 :STOP DEPTH
STEP        .FT                                             0.5 :STEP      
NULL        .                                           -999.25 :NULL      
COMP        .              ADVANCE ENERGY PARTNERS HAT MESA LLC :COMPANY   
WELL        .                                  DAGGER STATE SWD :WELL      
FLD         .                                               SWD :FIELD     
LOC         .                                                   :LOCATION  
CNTY        .                                               LEA :LOCATION  
STAT        .                                        NEW MEXICO :STATE     
CTRY        .                                     UNITED STATES :COUNTRY   
SRVC        .                                                   :SERVICE COMPANY
DATE        .                              1/27/2023 5:38:29 PM :LOG DATE  
API         .                                    30025458150000 :API NUMBER
UWI         .                                    30025458150000 :UNIQUE WELL ID
XCOORD      .                                  990031.214140587 :SURFACE X 
YCOORD      .                                  1027167.67164026 :SURFACE Y 
LAT         .                                        32.4498049 :LATITUDE  
LON         .                                      -103.6069526 :LONGITUDE 
ELEV        .FT                                            3803 :ELEVATION VALUE
ELEV_TYPE   .                                                KB :ELEVATION REFERENCE TYPE
~Curve Information Section
#MNEM       .UNIT                                      API CODE :CURVE DESCRIPTION
#------------------------------------------------------------------------------
DEPT        .FT                                                 :DEPTH     
AF90        .OHMM                                               :AF90      
AFCO90      .MM/M                                               :Array Induction Four Foot Conductivity A90 {F13.4}
AT90        .OHMM                                               :AT90      
ATCO90      .MM/M                                               :ATCO90    
ATRT        .OHMM                                               :ATRT      
CNTC        .HZ                                                 :CNTC      
ECGR        .GAPI                                               :ECGR      
EHGR        .GAPI                                               :EHGR      
GAMMA       .UNITLESS                                           :GAMMA     
GR          .GAPI                                               :GR        
GR_EDTC     .GAPI                                               :GR_EDTC   
HCGR        .GAPI                                               :HCGR      
HGR         .GAPI                                               :HGR       
HNPO        .CFCF                                               :HNPO      
HSGR        .GAPI                                               :HSGR      
ILD         .                                                   :ILD       
MCGR        .GAPI                                               :MCGR      
NPHI        .CFCF                                               :Nphi      
NPOR        .CFCF                                               :NPOR      
NPOR_LIM    .CFCF                                               :NPOR_LIM  
PE          .                                                   :PE        
PEF         .                                                   :PEF       
PEF8        .                                                   :PEF8      
PEFZ        .                                                   :PEFZ      
RHO8        .G/C3                                               :RHO8      
RHOB        .                                                   :RHOB      
RHOZ        .G/C3                                               :RHOZ      
TNPH        .CFCF                                               :TNPH      
TNPH_LIM    .CFCF                                               :TNPH_LIM  
~A        DEPTH           AF90         AFCO90           AT90         ATCO90           ATRT           CNTC           ECGR           EHGR          GAMMA             GR        GR_EDTC           HCGR            HGR           HNPO           HSGR            ILD           MCGR           NPHI           NPOR       NPOR_LIM             PE            PEF           PEF8           PEFZ           RHO8           RHOB           RHOZ           TNPH       TNPH_LIM
# ...
     13224.0000         15.034         66.516         14.132         70.762         17.466        -999.25        -999.25        -999.25         0.1839        -999.25        -999.25        -999.25        -999.25        -999.25        -999.25         17.466        -999.25        -999.25        -999.25        -999.25         4.2997         4.2997        -999.25        -999.25        -999.25        -999.25        -999.25        -999.25        -999.25
     13224.5000         15.283         65.431         14.841         67.382         18.165        -999.25        -999.25        -999.25         0.1727        -999.25        -999.25        -999.25        -999.25        -999.25        -999.25         18.165        -999.25        -999.25        -999.25        -999.25         4.2448         4.2448        -999.25        -999.25        -999.25        -999.25        -999.25        -999.25        -999.25
     13225.0000         15.582         64.176         15.621         64.016         18.831        -999.25        -999.25        -999.25          0.162        -999.25        -999.25        -999.25        -999.25        -999.25        -999.25         18.831        -999.25        -999.25        -999.25        -999.25         4.2946         4.2946        -999.25        -999.25        -999.25        -999.25        -999.25        -999.25        -999.25
     13225.5000         15.791         63.328          16.24         61.576         19.506        -999.25        -999.25        -999.25         0.1521        -999.25        -999.25        -999.25        -999.25        -999.25        -999.25         19.506        -999.25        -999.25        -999.25        -999.25         4.4245         4.4245        -999.25        -999.25        -999.25        -999.25        -999.25        -999.25        -999.25
     13226.0000         15.811         63.249         16.533         60.484         19.295        -999.25        -999.25        -999.25          0.156        -999.25        -999.25        -999.25        -999.25        -999.25        -999.25         19.295        -999.25        -999.25        -999.25        -999.25         4.5688         4.5688        -999.25        -999.25        -999.25        -999.25        -999.25        -999.25        -999.25
     13226.5000         15.622         64.012         16.456         60.769          19.21        -999.25        -999.25        -999.25         0.1607        -999.25        -999.25        -999.25        -999.25        -999.25        -999.25          19.21        -999.25        -999.25        -999.25        -999.25          4.672          4.672        -999.25        -999.25        -999.25        -999.25        -999.25        -999.25        -999.25
     13227.0000         15.288          65.41         16.082         62.183         18.751        -999.25        -999.25        -999.25         0.1682        -999.25        -999.25        -999.25        -999.25        -999.25        -999.25         18.751        -999.25        -999.25        -999.25        -999.25         4.6234         4.6234        -999.25        -999.25        -999.25        -999.25        -999.25        -999.25        -999.25
     13227.5000         14.919          67.03         15.571         64.223         17.983       2183.361        -999.25        136.228         0.1826        -999.25        -999.25        -999.25        133.873          0.255        -999.25         17.983        -999.25        -999.25          0.252          0.252         4.5824         4.5824          9.934             10          2.269        2.27053           2.27          0.252          0.252
     13228.0000         14.625         68.377         15.115         66.158         17.382       2183.361        -999.25        136.228         0.1897        -999.25        -999.25        -999.25        133.873          0.255        -999.25         17.382        -999.25        -999.25          0.252          0.252         4.6698         4.6698          9.934             10          2.269        2.27053           2.27          0.252          0.252
     13228.5000         14.487         69.026         14.884         67.188         16.912       2183.361        -999.25        136.228         0.2012        -999.25        -999.25        -999.25        133.873          0.255        -999.25         16.912        -999.25        -999.25          0.252          0.252         4.8526         4.8526          9.934             10          2.269        2.27053           2.27          0.252          0.252
     13229.0000         14.543          68.76         14.972          66.79         16.899       2183.361        -999.25        136.228         0.2077        -999.25        -999.25        -999.25        133.873          0.255        -999.25         16.899        -999.25        -999.25          0.252          0.252          4.861          4.861          9.934             10          2.269        2.27053           2.27          0.252          0.252
     13229.5000         14.784          67.64         15.374         65.046         17.207       2183.361        -999.25        136.228         0.2121        -999.25        -999.25        -999.25        133.873          0.255        -999.25         17.207        -999.25        -999.25          0.252          0.252         4.6462         4.6462          9.934             10          2.269        2.27053           2.27          0.252          0.252
     13230.0000         15.157         65.976         15.951         62.693         17.844       2183.361        -999.25        136.228         0.2154        -999.25        -999.25        -999.25        133.873          0.255        -999.25         17.844        -999.25        -999.25          0.252          0.252         4.4287         4.4287          9.934             10          2.269        2.27053           2.27          0.252          0.252
     13230.5000         15.581         64.181         16.461         60.749         18.353       2183.361        -999.25        136.228         0.2113        -999.25        -999.25        -999.25        133.873          0.255        -999.25         18.353        -999.25        -999.25          0.252          0.252         4.4507         4.4507          9.934             10          2.269        2.27053           2.27          0.252          0.252
     13231.0000         15.978         62.587         16.685         59.934         18.819       2183.361        -999.25        136.228         0.2141        -999.25        -999.25        -999.25        133.873          0.255        -999.25         18.819        -999.25        -999.25          0.252          0.252          4.664          4.664          9.934             10          2.269        2.27053           2.27          0.252          0.252
     13231.5000         16.307         61.322         16.594         60.264         19.106       2183.361        -999.25        136.228         0.2207        -999.25        -999.25        -999.25        133.873          0.255        -999.25         19.106        -999.25        -999.25          0.252          0.252         4.8686         4.8686          9.934             10          2.269        2.27053           2.27          0.252          0.252
     13232.0000          16.58         60.312         16.376         61.066         19.508       2183.361        -999.25        136.228         0.2227        -999.25        -999.25        -999.25        133.873          0.255        -999.25         19.508        -999.25        -999.25          0.252          0.252         4.9336         4.9336          9.934             10          2.269        2.27053           2.27          0.252          0.252
     13232.5000          16.83         59.419         16.291         61.384         19.808       2183.361        -999.25        136.228         0.2202        -999.25        -999.25        -999.25        133.873          0.255        -999.25         19.808        -999.25        -999.25          0.252          0.252         4.8301         4.8301          9.934             10          2.269        2.27053           2.27          0.252          0.252
