#------------------------------------------------------------------------------
# Created by    : mgeorge
# Created on    : 07/19/2023 10:29:21
#------------------------------------------------------------------------------
~Version Information Section
VERS.           2.0     :   CWLS log ASCII Standard - VERSION 2.0
WRAP.           NO      :   One line per depth step
~Well Information Section
#MNEM       .UNIT                                         VALUE :DESCRIPTION
#------------------------------------------------------------------------------
STRT        .FT                                             170 :START DEPTH
STOP        .FT                                            8880 :STOP DEPTH
STEP        .FT                                             0.5 :STEP      
NULL        .                                           -999.25 :NULL      
COMP        .                                       OXY USA INC :COMPANY   
WELL        .                             COVINGTON `A` FEDERAL :WELL      
FLD         .                                     RED TANK WEST :FIELD     
LOC         .                                                   :LOCATION  
CNTY        .                                               LEA :LOCATION  
STAT        .                                        NEW MEXICO :STATE     
CTRY        .                                     UNITED STATES :COUNTRY   
SRVC        .                                                   :SERVICE COMPANY
DATE        .                              8/3/2022 10:24:51 AM :LOG DATE  
API         .                                    30025349870000 :API NUMBER
UWI         .                                    30025349870000 :UNIQUE WELL ID
XCOORD      .                                  979541.866465641 :SURFACE X 
YCOORD      .                                  991455.566234473 :SURFACE Y 
LAT         .                                        32.3508526 :LATITUDE  
LON         .                                      -103.6374947 :LONGITUDE 
ELEV        .FT                                            3773 :ELEVATION VALUE
ELEV_TYPE   .                                                KB :ELEVATION REFERENCE TYPE
~Curve Information Section
#MNEM       .UNIT                                      API CODE :CURVE DESCRIPTION
#------------------------------------------------------------------------------
DEPT        .FT                                                 :DEPTH     
AF90        .OHMM                                               :AF90      
GR          .GAPI                                               :GR        
ILD         .                                                   :ILD       
NPHI        .                                                   :Nphi      
PE          .                                                   :PE        
PEFZ        .BE                                                 :PEFZ      
RHOB        .                                                   :RHOB      
RHOZ        .G/C3                                               :RHOZ      
TNPH        .V/V                                                :TNPH      
~A        DEPTH           AF90             GR            ILD           NPHI             PE           PEFZ           RHOB           RHOZ           TNPH
# ...
      8014.0000        22.4762       100.5405        22.4762         0.1289         2.6623         2.6623          2.608          2.608         0.1289
      8014.5000        17.0274       103.1081        17.0274         0.1371         2.6623         2.6623          2.602          2.602         0.1371
      8015.0000        12.9684        92.8767        12.9684         0.1371         2.6753         2.6753         2.5926         2.5926         0.1371
      8015.5000          9.399        80.9333          9.399         0.1229         2.6623         2.6623         2.5804         2.5804         0.1229
      8016.0000         7.0426           68.8         7.0426         0.1088         2.6234         2.6234         2.5642         2.5642         0.1088
      8016.5000         5.1543        61.7333         5.1543         0.1079         2.5584         2.5584          2.548          2.548         0.1079
      8017.0000         5.0305           62.4         5.0305         0.1068         2.5065         2.5065          2.532          2.532         0.1068
      8017.5000         4.9079        62.9333         4.9079         0.0968         2.4545         2.4545          2.516          2.516         0.0968
      8018.0000         4.8474        57.3333         4.8474         0.0789         2.5195         2.5195         2.4993         2.4993         0.0789
      8018.5000          5.092           51.6          5.092         0.0651         2.6234         2.6234         2.5791         2.5791         0.0651
      8019.0000         5.4772        50.6667         5.4772          0.067         2.6104         2.6104         2.5696         2.5696          0.067
      8019.5000         5.9275        55.7333         5.9275         0.0746         2.5714         2.5714         2.5588         2.5588         0.0746
      8020.0000              6           62.4              6         0.0853         2.5195         2.5195          2.548          2.548         0.0853
      8020.5000         5.8916        68.1361         5.8916         0.0947         2.4545         2.4545         2.5373         2.5373         0.0947
      8021.0000         5.7153        67.3409         5.7153         0.0989         2.4026         2.4026         2.5073         2.5073         0.0989
      8021.5000          5.578        66.1438          5.578         0.0944         2.3377         2.3377          2.514          2.514         0.0944
      8022.0000         5.4111        64.9452         5.4111         0.0896         2.3247         2.3247         2.5213         2.5213         0.0896
      8022.5000         5.2811        65.6173         5.2811         0.0864         2.3247         2.3247          2.528          2.528         0.0864
      8023.0000         5.2173        65.6207         5.2173         0.0875         2.3247         2.3247          2.536          2.536         0.0875
      8023.5000         5.3457        64.2853         5.3457         0.0883         2.3377         2.3377           2.53           2.53         0.0883
      8024.0000          5.612        62.1441          5.612         0.0827         2.3636         2.3636         2.5173         2.5173         0.0827
      8024.5000         5.8916        59.7333         5.8916         0.0689         2.3766         2.3766         2.5187         2.5187         0.0689
      8025.0000         6.1879           57.2         6.1879         0.0569         2.4416         2.4416          2.552          2.552         0.0569
      8025.5000         6.5008        56.1333         6.5008         0.0561         2.5065         2.5065         2.5568         2.5568         0.0561
      8026.0000         6.7875        58.9333         6.7875         0.0624         2.5844         2.5844         2.5588         2.5588         0.0624
      8026.5000          6.957        61.8824          6.957         0.0727         2.5844         2.5844         2.5595         2.5595         0.0727
      8027.0000         7.1286        63.7675         7.1286         0.0808         2.5455         2.5455         2.5595         2.5595         0.0808
      8027.5000         7.3038        67.2708         7.3038         0.0901         2.5195         2.5195         2.5453         2.5453         0.0901
      8028.0000         7.4833        72.5114         7.4833         0.0995         2.4545         2.4545         2.5493         2.5493         0.0995
      8028.5000         7.6672        78.7972         7.6672          0.109         2.4286         2.4286         2.5534         2.5534          0.109
      8029.0000         7.8556         75.593         7.8556         0.1132         2.4156         2.4156         2.5574         2.5574         0.1132
      8029.5000              8         71.592              8         0.1099         2.4286         2.4286         2.5622         2.5622         0.1099
      8030.0000         7.9516         68.106         7.9516         0.1063         2.4545         2.4545         2.5642         2.5642         0.1063
      8030.5000          7.438        69.0541          7.438         0.1041         2.5065         2.5065         2.5574         2.5574         0.1041
      8031.0000         6.9142           70.4         6.9142         0.1077         2.5584         2.5584         2.5373         2.5373         0.1077
      8031.5000          6.541        70.5333          6.541         0.1115         2.5065         2.5065         2.5413         2.5413         0.1115
      8032.0000         6.1498        69.5946         6.1498         0.1129         2.4416         2.4416         2.5554         2.5554         0.1129
      8032.5000         5.7153        68.7838         5.7153         0.1115         2.3636         2.3636         2.5561         2.5561         0.1115
      8033.0000         5.5442        69.8649         5.5442          0.109         2.3766         2.3766         2.5554         2.5554          0.109
      8033.5000          5.444        71.4667          5.444         0.1088         2.3896         2.3896          2.544          2.544         0.1088
      8034.0000         5.3783        73.0667         5.3783         0.1112         2.4156         2.4156         2.5333         2.5333         0.1112
      8034.5000         5.2811        74.1333         5.2811         0.1142         2.4416         2.4416          2.522          2.522         0.1142
      8035.0000         5.2173        72.6667         5.2173         0.1173         2.4416         2.4416         2.5107         2.5107         0.1173
      8035.5000          5.123           70.8          5.123         0.1197         2.3766         2.3766         2.5227         2.5227         0.1197
      8036.0000         5.0305        68.6487         5.0305         0.1216         2.3506         2.3506          2.522          2.522         0.1216
      8036.5000         4.9691        69.4595         4.9691         0.1216         2.3117         2.3117          2.518          2.518         0.1216
      8037.0000         4.9691        72.6667         4.9691         0.1216         2.2857         2.2857          2.514          2.514         0.1216
      8037.5000         4.9691        75.4667         4.9691         0.1216         2.2857         2.2857          2.514          2.514         0.1216
      8038.0000         4.9691        74.9333         4.9691         0.1216         2.2857         2.2857          2.514          2.514         0.1216
      8038.5000              5        72.5333              5         0.1203         2.2597         2.2597         2.5153         2.5153         0.1203
      8039.0000              5        71.0667              5         0.1175         2.2338         2.2338         2.5287         2.5287         0.1175
      8039.5000              5        70.5333              5         0.1142         2.2338         2.2338         2.5193         2.5193         0.1142
      8040.0000         5.0611        69.1892         5.0611         0.1112         2.2338         2.2338         2.5227         2.5227         0.1112
