#------------------------------------------------------------------------------
# Created by    : mgeorge
# Created on    : 07/19/2023 10:29:21
#------------------------------------------------------------------------------
~Version Information Section
VERS.           2.0     :   CWLS log ASCII Standard - VERSION 2.0
WRAP.           NO      :   One line per depth step
~Well Information Section
#MNEM       .UNIT                                         VALUE :DESCRIPTION
#------------------------------------------------------------------------------
STRT        .FT                                             170 :START DEPTH
STOP        .FT                                            8880 :STOP DEPTH
STEP        .FT                                             0.5 :STEP      
NULL        .                                           -999.25 :NULL      
COMP        .                                       OXY USA INC :COMPANY   
WELL        .                             COVINGTON `A` FEDERAL :WELL      
FLD         .                                     RED TANK WEST :FIELD     
LOC         .                                                   :LOCATION  
CNTY        .                                               LEA :LOCATION  
STAT        .                                        NEW MEXICO :STATE     
CTRY        .                                     UNITED STATES :COUNTRY   
SRVC        .                                                   :SERVICE COMPANY
DATE        .                              8/3/2022 10:24:51 AM :LOG DATE  
API         .                                    30025349870000 :API NUMBER
UWI         .                                    30025349870000 :UNIQUE WELL ID
XCOORD      .                                  979541.866465641 :SURFACE X 
YCOORD      .                                  991455.566234473 :SURFACE Y 
LAT         .                                        32.3508526 :LATITUDE  
LON         .                                      -103.6374947 :LONGITUDE 
ELEV        .FT                                            3773 :ELEVATION VALUE
ELEV_TYPE   .                                                KB :ELEVATION REFERENCE TYPE
~Curve Information Section
#MNEM       .UNIT                                      API CODE :CURVE DESCRIPTION
#------------------------------------------------------------------------------
DEPT        .FT                                                 :DEPTH     
AF90        .OHMM                                               :AF90      
GR          .GAPI                                               :GR        
ILD         .                                                   :ILD       
NPHI        .                                                   :Nphi      
PE          .                                                   :PE        
PEFZ        .BE                                                 :PEFZ      
RHOB        .                                                   :RHOB      
RHOZ        .G/C3                                               :RHOZ      
TNPH        .V/V                                                :TNPH      
~A        DEPTH           AF90             GR            ILD           NPHI             PE           PEFZ           RHOB           RHOZ           TNPH
# ...
      7457.5000         6.1498        44.7297         6.1498         0.0432         2.7307         2.7307           2.59           2.59         0.0432
      7458.0000          5.851        44.4595          5.851         0.0418         2.7575         2.7575         2.5973         2.5973         0.0418
      7458.5000         5.1273        44.7297         5.1273         0.0455         2.7978         2.7978         2.6041         2.6041         0.0455
      7459.0000            4.5             45            4.5         0.0558         2.8246         2.8246         2.6135         2.6135         0.0558
      7459.5000         3.8794        45.4054         3.8794         0.0792          2.865          2.865         2.6169         2.6169         0.0792
      7460.0000         3.4115        49.5946         3.4115         0.1027         2.8379         2.8379            2.5            2.5         0.1027
      7460.5000          3.037           57.6          3.037         0.1262         2.7291         2.7291         2.4913         2.4913         0.1262
      7461.0000         2.7868             66         2.7868         0.1495         2.6203         2.6203         2.4833         2.4833         0.1495
      7461.5000         2.5729             78         2.5729         0.1527         2.4983         2.4983         2.4727         2.4727         0.1527
      7462.0000         2.5415        77.3333         2.5415         0.1505         2.3766         2.3766         2.4673         2.4673         0.1505
      7462.5000         2.5104        68.5333         2.5104         0.1454         2.3358         2.3358          2.456          2.456         0.1454
      7463.0000         2.4951           59.6         2.4951         0.1317         2.3353         2.3353          2.456          2.456         0.1317
      7463.5000         2.5259           50.8         2.5259         0.1164         2.3483         2.3483         2.4593         2.4593         0.1164
      7464.0000         2.5571        40.5405         2.5571         0.1003         2.3612         2.3612         2.4627         2.4627         0.1003
      7464.5000         2.5887        39.3421         2.5887         0.0885          2.374          2.374          2.468          2.468         0.0885
      7465.0000         2.6695        39.2105         2.6695         0.0851         2.3736         2.3736         2.4853         2.4853         0.0851
      7465.5000         2.8212        39.3421         2.8212         0.0872          2.373          2.373          2.492          2.492         0.0872
      7466.0000         3.0744        40.4054         3.0744         0.0869         2.3859         2.3859          2.498          2.498         0.0869
      7466.5000         3.3087        41.2162         3.3087         0.0803         2.4518         2.4518          2.506          2.506         0.0803
      7467.0000         3.6047        40.1351         3.6047         0.0728         2.5308         2.5308         2.5187         2.5187         0.0728
      7467.5000         3.8558        38.1579         3.8558         0.0661         2.5964         2.5964         2.5313         2.5313         0.0661
      7468.0000         4.1516        36.1842         4.1516         0.0584         2.6617         2.6617          2.548          2.548         0.0584
      7468.5000         4.4721        35.3947         4.4721         0.0539          2.727          2.727         2.5607         2.5607         0.0539
      7469.0000         4.5844        39.6053         4.5844           0.06         2.7393         2.7393         2.5733         2.5733           0.06
      7469.5000         4.3897        43.9189         4.3897         0.0709         2.6723         2.6723         2.5793         2.5793         0.0709
      7470.0000         4.1259        45.4054         4.1259         0.0805         2.6056         2.6056         2.5613         2.5613         0.0805
      7470.5000         3.9033        42.7027         3.9033         0.0901         2.5526         2.5526         2.5333         2.5333         0.0901
      7471.0000         3.6715        40.6757         3.6715         0.0973         2.5132         2.5132          2.506          2.506         0.0973
      7471.5000         3.5827        43.6486         3.5827         0.1016         2.5132         2.5132          2.478          2.478         0.1016
      7472.0000         4.1004           51.2         4.1004         0.1058            2.5            2.5         2.4467         2.4467         0.1058
      7472.5000         4.8776           66.4         4.8776         0.1101            2.5            2.5         2.4447         2.4447         0.1101
      7473.0000         6.2646       100.1351         6.2646         0.1184            2.5            2.5         2.5247         2.5247         0.1184
      7473.5000         8.2518       106.3513         8.2518         0.1306         2.5395         2.5395         2.5407         2.5407         0.1306
      7474.0000        10.6326       119.0541        10.6326         0.1446         2.6184         2.6184         2.5567         2.5567         0.1446
      7474.5000        12.4711       131.4474        12.4711         0.1522         2.6974         2.6974         2.5627         2.5627         0.1522
      7475.0000        14.6274       130.5263        14.6274         0.1484         2.7895         2.7895         2.5647         2.5647         0.1484
      7475.5000        16.8437          127.2        16.8437         0.1405         2.8553         2.8553         2.5667         2.5667         0.1405
      7476.0000        19.7561       124.2667        19.7561         0.1338         2.8684         2.8684         2.5607         2.5607         0.1338
      7476.5000        21.9306          121.2        21.9306         0.1262         2.8553         2.8553         2.5547         2.5547         0.1262
      7477.0000        21.9306       124.1333        21.9306         0.1244         2.7895         2.7895         2.5487         2.5487         0.1244
      7477.5000        21.7963       128.2667        21.7963         0.1262         2.6974         2.6974         2.5467         2.5467         0.1262
      7478.0000        19.3959          129.2        19.3959         0.1231         2.8947         2.8947         2.5713         2.5713         0.1231
      7478.5000         15.083       116.8919         15.083         0.1118         3.1507         3.1507         2.5967         2.5967         0.1118
      7479.0000        11.6573       105.9459        11.6573         0.1019         3.3836         3.3836         2.6176         2.6176         0.1019
      7479.5000          9.056        97.4071          9.056          0.106         3.3973         3.3973         2.5953         2.5953          0.106
      7480.0000         5.7417        92.0575         5.7417         0.1156         3.1507         3.1507         2.5593         2.5593         0.1156
      7480.5000         4.8776        87.0667         4.8776         0.1236         2.9349         2.9349         2.5347         2.5347         0.1236
      7481.0000         4.6416        81.8667         4.6416          0.126         2.6988         2.6988         2.5347         2.5347          0.126
      7481.5000         4.4445        77.6316         4.4445         0.1283         2.5017         2.5017         2.5347         2.5347         0.1283
      7482.0000         4.2295        72.8947         4.2295         0.1319         2.3305         2.3305         2.5347         2.5347         0.1319
      7482.5000         4.1259           68.8         4.1259         0.1348         2.3177         2.3177         2.5153         2.5153         0.1348
      7483.0000         4.0249           64.4         4.0249         0.1327         2.3181         2.3181          2.506          2.506         0.1327
      7483.5000         3.9513           63.6         3.9513         0.1299         2.3185         2.3185         2.4927         2.4927         0.1299
