#------------------------------------------------------------------------------
# Created by    : mgeorge
# Created on    : 07/19/2023 10:29:38
#------------------------------------------------------------------------------
~Version Information Section
VERS.           2.0     :   CWLS log ASCII Standard - VERSION 2.0
WRAP.           NO      :   One line per depth step
~Well Information Section
#MNEM       .UNIT                                         VALUE :DESCRIPTION
#------------------------------------------------------------------------------
STRT        .FT                                           11964 :START DEPTH
STOP        .FT                                         16416.5 :STOP DEPTH
STEP        .FT                                             0.5 :STEP      
NULL        .                                           -999.25 :NULL      
COMP        .              ADVANCE ENERGY PARTNERS HAT MESA LLC :COMPANY   
WELL        .                                  DAGGER STATE SWD :WELL      
FLD         .                                               SWD :FIELD     
LOC         .                                                   :LOCATION  
CNTY        .                                               LEA :LOCATION  
STAT        .                                        NEW MEXICO :STATE     
CTRY        .                                     UNITED STATES :COUNTRY   
SRVC        .                                                   :SERVICE COMPANY
DATE        .                              1/27/2023 5:38:29 PM :LOG DATE  
API         .                                    30025458150000 :API NUMBER
UWI         .                                    30025458150000 :UNIQUE WELL ID
XCOORD      .                                  990031.214140587 :SURFACE X 
YCOORD      .                                  1027167.67164026 :SURFACE Y 
LAT         .                                        32.4498049 :LATITUDE  
LON         .                                      -103.6069526 :LONGITUDE 
ELEV        .FT                                            3803 :ELEVATION VALUE
ELEV_TYPE   .                                                KB :ELEVATION REFERENCE TYPE
~Curve Information Section
#MNEM       .UNIT                                      API CODE :CURVE DESCRIPTION
#------------------------------------------------------------------------------
DEPT        .FT                                                 :DEPTH     
AF90        .OHMM                                               :AF90      
AFCO90      .MM/M                                               :Array Induction Four Foot Conductivity A90 {F13.4}
AT90        .OHMM                                               :AT90      
ATCO90      .MM/M                                               :ATCO90    
ATRT        .OHMM                                               :ATRT      
CNTC        .HZ                                                 :CNTC      
ECGR        .GAPI                                               :ECGR      
EHGR        .GAPI                                               :EHGR      
GAMMA       .UNITLESS                                           :GAMMA     
GR          .GAPI                                               :GR        
GR_EDTC     .GAPI                                               :GR_EDTC   
HCGR        .GAPI                                               :HCGR      
HGR         .GAPI                                               :HGR       
HNPO        .CFCF                                               :HNPO      
HSGR        .GAPI                                               :HSGR      
ILD         .                                                   :ILD       
MCGR        .GAPI                                               :MCGR      
NPHI        .CFCF                                               :Nphi      
NPOR        .CFCF                                               :NPOR      
NPOR_LIM    .CFCF                                               :NPOR_LIM  
PE          .                                                   :PE        
PEF         .                                                   :PEF       
PEF8        .                                                   :PEF8      
PEFZ        .                                                   :PEFZ      
RHO8        .G/C3                                               :RHO8      
RHOB        .                                                   :RHOB      
RHOZ        .G/C3                                               :RHOZ      
TNPH        .CFCF                                               :TNPH      
TNPH_LIM    .CFCF                                               :TNPH_LIM  
~A        DEPTH           AF90         AFCO90           AT90         ATCO90           ATRT           CNTC           ECGR           EHGR          GAMMA             GR        GR_EDTC           HCGR            HGR           HNPO           HSGR            ILD           MCGR           NPHI           NPOR       NPOR_LIM             PE            PEF           PEF8           PEFZ           RHO8           RHOB           RHOZ           TNPH       TNPH_LIM
# ...
     15510.0000        -999.25        -999.25        -999.25        -999.25        -999.25       1899.665        149.317        149.556        -999.25        146.736        146.889         79.627         146.97          0.332        139.842        -999.25         75.847          0.329          0.355          0.355        -999.25        -999.25          3.635           3.72          2.452        2.45179          2.451          0.343          0.343
     15510.5000        -999.25        -999.25        -999.25        -999.25        -999.25       1958.582        152.173         149.02        -999.25        149.542        143.662         78.168        146.444          0.338        140.055        -999.25         74.394          0.317           0.32           0.32        -999.25        -999.25          3.772          3.847          2.449        2.45008           2.45          0.312          0.312
     15511.0000        -999.25        -999.25        -999.25        -999.25        -999.25        2019.86        147.161        156.366        -999.25        144.617         136.08          72.52        153.663          0.304        134.734        -999.25         68.895          0.308          0.289          0.289        -999.25        -999.25          4.116          4.066          2.459        2.45863          2.458          0.289          0.289
     15511.5000        -999.25        -999.25        -999.25        -999.25        -999.25       2072.538        140.141        134.267        -999.25        137.719         129.96         70.161        131.946          0.279         126.48        -999.25         66.723          0.291          0.285          0.285        -999.25        -999.25          4.204          4.301          2.501        2.47573          2.475          0.287          0.287
     15512.0000        -999.25        -999.25        -999.25        -999.25        -999.25       2090.202        130.147        129.567        -999.25        127.898        127.797         69.137        127.328          0.261        116.131        -999.25         65.908          0.276          0.254          0.254        -999.25        -999.25          4.829          4.461          2.494        2.49967            2.5          0.279          0.279
     15512.5000        -999.25        -999.25        -999.25        -999.25        -999.25        2060.97        126.117        126.355        -999.25        123.937        123.114         68.647        124.171          0.266        117.081        -999.25         65.391          0.286          0.272          0.272        -999.25        -999.25          4.574          4.474          2.466        2.48941          2.489          0.282          0.282
     15513.0000        -999.25        -999.25        -999.25        -999.25        -999.25       2028.877        130.043        122.428        -999.25        127.795        124.813         71.474        120.312          0.288        120.764        -999.25         68.099          0.305          0.302          0.302        -999.25        -999.25          4.309          4.399          2.446        2.46205          2.462          0.297          0.297
     15513.5000        -999.25        -999.25        -999.25        -999.25        -999.25       1965.431        132.898        141.346        -999.25        130.601         127.46         77.483        138.902          0.323        129.566        -999.25          73.86          0.321          0.335          0.335        -999.25        -999.25          4.199          4.262          2.434        2.43127          2.431          0.314          0.314
     15514.0000        -999.25        -999.25        -999.25        -999.25        -999.25       1938.148        136.349        134.921        -999.25        133.992        132.503         79.377        132.589          0.309        131.608        -999.25          75.67          0.314          0.319          0.319        -999.25        -999.25          4.183          4.178           2.46        2.42101          2.422          0.316          0.316
     15514.5000        -999.25        -999.25        -999.25        -999.25        -999.25       1948.283        137.197         132.78        -999.25        134.825        133.296         80.194        130.485          0.307        131.287        -999.25         76.494          0.302           0.31           0.31        -999.25        -999.25          3.872          4.093           2.43        2.42101          2.422          0.302          0.302
     15515.0000        -999.25        -999.25        -999.25        -999.25        -999.25        1949.73        136.245        143.963        -999.25        133.889        126.886         78.616        141.474           0.31        127.775        -999.25         75.017          0.301          0.286          0.286        -999.25        -999.25          4.055          4.092          2.408        2.42101          2.421          0.292          0.292
     15515.5000        -999.25        -999.25        -999.25        -999.25        -999.25       1957.175         134.46        132.065        -999.25        132.136        128.523          75.96        129.782          0.284        124.704        -999.25         72.459          0.296          0.273          0.273        -999.25        -999.25          4.253          4.157          2.418        2.42614          2.426          0.294          0.294
     15516.0000        -999.25        -999.25        -999.25        -999.25        -999.25       1948.085        127.902        127.426        -999.25        125.691        130.483         75.891        125.224          0.322        124.761        -999.25         72.392           0.32          0.317          0.317        -999.25        -999.25          4.395          4.249          2.434        2.42614          2.426          0.302          0.302
     15516.5000        -999.25        -999.25        -999.25        -999.25        -999.25       1942.535         129.21        124.213        -999.25        126.977        137.864         77.023        122.066          0.316        125.666        -999.25          73.49          0.346          0.316          0.316        -999.25        -999.25          4.483          4.301          2.435        2.43298          2.434           0.32           0.32
     15517.0000        -999.25        -999.25        -999.25        -999.25        -999.25           1907        132.913        135.992        -999.25        130.616        137.135         76.803        133.641           0.38        125.946        -999.25         73.258           0.35          0.359          0.359        -999.25        -999.25          4.027          4.285          2.443         2.4535          2.454          0.348          0.348
     15517.5000        -999.25        -999.25        -999.25        -999.25        -999.25       1900.775        130.772        138.669        -999.25        128.511        130.629         72.806        136.271          0.339        123.123        -999.25         69.339          0.334           0.34           0.34        -999.25        -999.25          4.156          4.216          2.496        2.47744          2.478          0.352          0.352
     15518.0000        -999.25        -999.25        -999.25        -999.25        -999.25       1859.594        129.106        117.789        -999.25        126.874        134.639         73.909        115.753          0.345        124.132        -999.25         70.437          0.319          0.336          0.336        -999.25        -999.25           4.78          4.071          2.541        2.49625          2.496          0.342          0.342
     15518.5000        -999.25        -999.25        -999.25        -999.25        -999.25       1847.743        129.091        130.994        -999.25         126.86        132.875         74.066         128.73          0.339        123.623        -999.25         70.606          0.329          0.329          0.329        -999.25        -999.25          3.471          3.898          2.468        2.48428          2.485          0.329          0.329
