#------------------------------------------------------------------------------
# Created by    : mgeorge
# Created on    : 07/19/2023 10:29:23
#------------------------------------------------------------------------------
~Version Information Section
VERS.           2.0     :   CWLS log ASCII Standard - VERSION 2.0
WRAP.           NO      :   One line per depth step
~Well Information Section
#MNEM       .UNIT                                         VALUE :DESCRIPTION
#------------------------------------------------------------------------------
STRT        .FT                                             166 :START DEPTH
STOP        .FT                                           14648 :STOP DEPTH
STEP        .FT                                             0.5 :STEP      
NULL        .                                           -999.25 :NULL      
COMP        .                     DEVON ENERGY PRODUCTION CO LP :COMPANY   
WELL        .                          RIO BLANCO 4 FEDERAL COM :WELL      
FLD         .                               BELL LAKE NORTHEAST :FIELD     
LOC         .                                                   :LOCATION  
CNTY        .                                               LEA :LOCATION  
STAT        .                                        NEW MEXICO :STATE     
CTRY        .                                     UNITED STATES :COUNTRY   
SRVC        .                                                   :SERVICE COMPANY
DATE        .                               8/4/2022 3:29:17 PM :LOG DATE  
API         .                                    30025364250000 :API NUMBER
UWI         .                                    30025364250000 :UNIQUE WELL ID
XCOORD      .                                  1030633.57202521 :SURFACE X 
YCOORD      .                                  982685.374946431 :SURFACE Y 
LAT         .                                        32.3308251 :LATITUDE  
LON         .                                      -103.4713531 :LONGITUDE 
ELEV        .FT                                            3422 :ELEVATION VALUE
ELEV_TYPE   .                                                KB :ELEVATION REFERENCE TYPE
~Curve Information Section
#MNEM       .UNIT                                      API CODE :CURVE DESCRIPTION
#------------------------------------------------------------------------------
DEPT        .FT                                                 :DEPTH     
AF90        .OHMM                                               :AF90      
ASF90       .OHMM                                               :ARRAY INDUCTION FOUR FOOT RESISTIVITY A90
DRESWS      .OHMM                                               :DEEP INDUCTION RESISTIVITY
GR          .GAPI                                               :GR        
GRR         .GAPI                                               :GRR       
GRS         .GAPI                                               :GRS       
GRWS        .GAPI                                               :GAMMA RAY FROM SONIC LOG
RLA5        .OHMM                                               :RLA5      
~A        DEPTH           AF90          ASF90         DRESWS             GR            GRR            GRS           GRWS           RLA5
# ...
     13559.0000        -999.25        -999.25         5.3184        86.9643       125.2632        95.0708        95.0708         5.3184
     13559.5000        -999.25        -999.25         5.2044        92.7778       122.2112        96.4701        96.4701         5.2044
     13560.0000        -999.25        -999.25         5.7544       100.1724       114.3506        96.2214        96.2214         5.7544
     13560.5000        -999.25        -999.25         5.7152       104.8276       108.8353        94.9519        94.9519         5.7152
     13561.0000        -999.25        -999.25         5.6761       106.7241       106.5881         94.264         94.264         5.6761
     13561.5000        -999.25        -999.25         5.7817       108.7931        107.218        95.8407        95.8407         5.7817
     13562.0000        -999.25        -999.25         6.1354       111.9643       110.0752        99.4653        99.4653         6.1354
     13562.5000        -999.25        -999.25         6.0649       113.3929       112.9514        98.8364        98.8364         6.0649
     13563.0000        -999.25        -999.25         6.2555            110       113.6842        96.6161        96.6161         6.2555
     13563.5000        -999.25        -999.25         6.7349       104.1379       115.7239        96.4282        96.4282         6.7349
     13564.0000        -999.25        -999.25         7.1329       103.9655       116.6435        97.9047        97.9047         7.1329
     13564.5000        -999.25        -999.25          6.987       102.2414       116.2406       102.4229       102.4229          6.987
     13565.0000        -999.25        -999.25         7.3846          88.75       117.4792       101.6099       101.6099         7.3846
     13565.5000        -999.25        -999.25         7.8047        83.2143       120.4056        100.407        100.407         7.8047
     13566.0000        -999.25        -999.25         5.7132          81.25       123.4586        99.5284        99.5284         5.7132
     13566.5000        -999.25        -999.25         5.6426        82.1429       123.1579         97.419         97.419         5.6426
     13567.0000        -999.25        -999.25         5.6607        83.3929       120.1299         94.183         94.183         5.6607
     13567.5000        -999.25        -999.25         5.9023        84.8214       114.1367        90.5694        90.5694         5.9023
     13568.0000        -999.25        -999.25         5.4956       100.1724       110.8225        88.8568        88.8568         5.4956
     13568.5000        -999.25        -999.25         5.6949       100.8621       109.4737        91.2932        91.2932         5.6949
     13569.0000        -999.25        -999.25         5.8417       104.4828       112.9856        93.9612        93.9612         5.8417
     13569.5000        -999.25        -999.25         5.8018        107.931       117.1404        95.1498        95.1498         5.8018
     13570.0000        -999.25        -999.25         5.6833       106.7241       120.8433        95.3569        95.3569         5.6833
     13570.5000        -999.25        -999.25         5.6159       101.7241       121.9501        95.4116        95.4116         5.6159
     13571.0000        -999.25        -999.25         5.5673        94.0741       115.9398        95.3328        95.3328         5.5673
     13571.5000        -999.25        -999.25         5.6659        90.9259       113.6842        94.6713        94.6713         5.6659
     13572.0000        -999.25        -999.25         5.7806        88.3929       111.8251        93.1085        93.1085         5.7806
     13572.5000        -999.25        -999.25         5.8446        85.1786       110.4294         91.604         91.604         5.8446
     13573.0000        -999.25        -999.25          5.845             85       109.4512         89.201         89.201          5.845
     13573.5000        -999.25        -999.25         5.7215             90       108.5714        87.9185        87.9185         5.7215
     13574.0000        -999.25        -999.25         5.5314        91.6667       113.1139        88.3344        88.3344         5.5314
     13574.5000        -999.25        -999.25         5.5318        89.6429       116.3403        88.8468        88.8468         5.5318
     13575.0000        -999.25        -999.25         5.5619             90       115.9068        88.7106        88.7106         5.5619
     13575.5000        -999.25        -999.25         5.6876        94.2593       114.8868        88.5781        88.5781         5.6876
     13576.0000        -999.25        -999.25         5.7268        98.5185       114.2857        89.0324        89.0324         5.7268
     13576.5000        -999.25        -999.25         5.6314        95.3704       113.0274        89.6409        89.6409         5.6314
     13577.0000        -999.25        -999.25         5.5336        94.8148       111.5218        90.2493        90.2493         5.5336
     13577.5000        -999.25        -999.25         5.5819        97.7778       112.0538        90.8578        90.8578         5.5819
     13578.0000        -999.25        -999.25         5.7346        95.7407       113.5174        91.0669        91.0669         5.7346
     13578.5000        -999.25        -999.25         5.8508        91.1111       116.2707         89.503         89.503         5.8508
     13579.0000        -999.25        -999.25         5.8095           87.5       119.5135        86.3423        86.3423         5.8095
     13579.5000        -999.25        -999.25         5.4425        94.4444        121.527        84.6375        84.6375         5.4425
     13580.0000        -999.25        -999.25         4.9016        96.6667       120.4325        85.7827        85.7827         4.9016
     13580.5000        -999.25        -999.25         4.6712        92.5926       116.9925        87.8017        87.8017         4.6712
     13581.0000        -999.25        -999.25         5.8311        91.6667       114.2527        88.1473        88.1473         5.8311
     13581.5000        -999.25        -999.25         5.6946       100.1724       108.2582        86.3883        86.3883         5.6946
     13582.0000        -999.25        -999.25          5.102       101.8966       105.0237        84.2514        84.2514          5.102
     13582.5000        -999.25        -999.25         5.9008       103.6207       100.6783        83.7919        83.7919         5.9008
     13583.0000        -999.25        -999.25         6.1461        102.069        102.384        85.9673        85.9673         6.1461
     13583.5000        -999.25        -999.25          6.583        94.0741       111.1839        89.8792        89.8792          6.583
     13584.0000        -999.25        -999.25         5.8136        91.1111       116.4142        92.9548        92.9548         5.8136
     13584.5000        -999.25        -999.25          5.478        90.9259       118.2217        93.1018        93.1018          5.478
     13585.0000        -999.25        -999.25         5.3648             90       119.2481        92.4521        92.4521         5.3648
     13585.5000        -999.25        -999.25         5.5402        90.7407       121.0526        91.6324        91.6324         5.5402
     13586.0000        -999.25        -999.25         5.4268        91.4815       122.1053        92.5571        92.5571         5.4268
     13586.5000        -999.25        -999.25         5.5152        91.1111       121.5038        94.5776        94.5776         5.5152
     13587.0000        -999.25        -999.25         5.6967        91.8519       121.5869        96.0962        96.0962         5.6967
     13587.5000        -999.25        -999.25         5.8567       100.3448       121.8045        95.1352        95.1352         5.8567
     13588.0000        -999.25        -999.25         5.6971       101.2069       122.3576        93.7813        93.7813         5.6971
