#------------------------------------------------------------------------------
# Created by    : mgeorge
# Created on    : 07/19/2023 10:29:21
#------------------------------------------------------------------------------
~Version Information Section
VERS.           2.0     :   CWLS log ASCII Standard - VERSION 2.0
WRAP.           NO      :   One line per depth step
~Well Information Section
#MNEM       .UNIT                                         VALUE :DESCRIPTION
#------------------------------------------------------------------------------
STRT        .FT                                             170 :START DEPTH
STOP        .FT                                            8880 :STOP DEPTH
STEP        .FT                                             0.5 :STEP      
NULL        .                                           -999.25 :NULL      
COMP        .                                       OXY USA INC :COMPANY   
WELL        .                             COVINGTON `A` FEDERAL :WELL      
FLD         .                                     RED TANK WEST :FIELD     
LOC         .                                                   :LOCATION  
CNTY        .                                               LEA :LOCATION  
STAT        .                                        NEW MEXICO :STATE     
CTRY        .                                     UNITED STATES :COUNTRY   
SRVC        .                                                   :SERVICE COMPANY
DATE        .                              8/3/2022 10:24:51 AM :LOG DATE  
API         .                                    30025349870000 :API NUMBER
UWI         .                                    30025349870000 :UNIQUE WELL ID
XCOORD      .                                  979541.866465641 :SURFACE X 
YCOORD      .                                  991455.566234473 :SURFACE Y 
LAT         .                                        32.3508526 :LATITUDE  
LON         .                                      -103.6374947 :LONGITUDE 
ELEV        .FT                                            3773 :ELEVATION VALUE
ELEV_TYPE   .                                                KB :ELEVATION REFERENCE TYPE
~Curve Information Section
#MNEM       .UNIT                                      API CODE :CURVE DESCRIPTION
#------------------------------------------------------------------------------
DEPT        .FT                                                 :DEPTH     
AF90        .OHMM                                               :AF90      
GR          .GAPI                                               :GR        
ILD         .                                                   :ILD       
NPHI        .                                                   :Nphi      
PE          .                                                   :PE        
PEFZ        .BE                                                 :PEFZ      
RHOB        .                                                   :RHOB      
RHOZ        .G/C3                                               :RHOZ      
TNPH        .V/V                                                :TNPH      
~A        DEPTH           AF90             GR            ILD           NPHI             PE           PEFZ           RHOB           RHOZ           TNPH
# ...
      6901.0000         0.8949        63.4667         0.8949         0.2051           2.25           2.25         2.3581         2.3581         0.2051
      6901.5000         0.9007        65.4667         0.9007         0.2067         2.2763         2.2763          2.352          2.352         0.2067
      6902.0000         0.9066           66.4         0.9066         0.2043         2.3026         2.3026          2.346          2.346         0.2043
      6902.5000         0.9297        64.2667         0.9297         0.2048         2.2895         2.2895         2.3493         2.3493         0.2048
      6903.0000         0.9711        62.2667         0.9711         0.2061         2.2632         2.2632         2.3581         2.3581         0.2061
      6903.5000         1.0268        61.3333         1.0268         0.1891         2.2895         2.2895         2.3534         2.3534         0.1891
      6904.0000         1.0852        60.2667         1.0852         0.1741         2.3421         2.3421         2.3487         2.3487         0.1741
      6904.5000         1.1261        60.6667         1.1261         0.1589         2.4342         2.4342          2.404          2.404         0.1589
      6905.0000         1.1059        63.4667         1.1059         0.1509         2.5658         2.5658         2.4327         2.4327         0.1509
      6905.5000         1.0861           67.6         1.0861           0.17         2.7105         2.7105         2.4567         2.4567           0.17
      6906.0000         1.0667        69.3333         1.0667         0.1963         2.7237         2.7237           2.46           2.46         0.1963
      6906.5000         1.0413           68.8         1.0413         0.2051         2.5132         2.5132         2.3784         2.3784         0.2051
      6907.0000         1.0227        68.6667         1.0227         0.2019         2.3816         2.3816         2.3892         2.3892         0.2019
      6907.5000         1.0045        70.1351         1.0045         0.1923         2.2895         2.2895         2.3986         2.3986         0.1923
      6908.0000         1.0047        71.7568         1.0047         0.1923         2.2632         2.2632         2.3946         2.3946         0.1923
      6908.5000          1.005         72.027          1.005         0.1957         2.2895         2.2895         2.3824         2.3824         0.1957
      6909.0000         0.9993        70.9459         0.9993         0.1987         2.3421         2.3421         2.3703         2.3703         0.1987
      6909.5000         0.9934        69.7333         0.9934         0.2019         2.3947         2.3947         2.3655         2.3655         0.2019
      6910.0000         0.9876        70.6757         0.9876         0.2024         2.4211         2.4211         2.3655         2.3655         0.2024
      6910.5000         0.9816        71.0811         0.9816         0.2021         2.3684         2.3684         2.3642         2.3642         0.2021
      6911.0000         0.9755        70.5405         0.9755         0.2019         2.3026         2.3026         2.3628         2.3628         0.2019
      6911.5000         0.9755             70         0.9755         0.2027         2.2895         2.2895         2.3622         2.3622         0.2027
      6912.0000         0.9755        70.1351         0.9755         0.2019         2.3026         2.3026         2.3601         2.3601         0.2019
      6912.5000         0.9755        70.4054         0.9755         0.1923         2.3289         2.3289         2.3655         2.3655         0.1923
      6913.0000         0.9755        70.8108         0.9755         0.1915         2.3421         2.3421         2.3736         2.3736         0.1915
      6913.5000         0.9755        70.5405         0.9755         0.1947         2.3421         2.3421         2.3838         2.3838         0.1947
      6914.0000         0.9755             70         0.9755         0.1976         2.3684         2.3684         2.3824         2.3824         0.1976
      6914.5000         1.0122        69.3333         1.0122         0.1995         2.3947         2.3947         2.3824         2.3824         0.1995
      6915.0000         1.0435           68.8         1.0435         0.1989         2.4211         2.4211         2.3824         2.3824         0.1989
      6915.5000         1.0757        69.0667         1.0757         0.1963         2.4342         2.4342         2.3824         2.3824         0.1963
      6916.0000         1.1089        70.1351         1.1089         0.1901         2.4211         2.4211         2.3838         2.3838         0.1901
      6916.5000         1.1431        72.8378         1.1431         0.1776         2.4079         2.4079         2.3858         2.3858         0.1776
      6917.0000         1.1784        77.7027         1.1784         0.1751         2.3947         2.3947         2.3885         2.3885         0.1751
      6917.5000         1.2222        80.1333         1.2222         0.1727         2.4079         2.4079         2.3899         2.3899         0.1727
      6918.0000         1.2599        73.5135         1.2599         0.1627         2.4211         2.4211         2.3926         2.3926         0.1627
      6918.5000         1.2988           66.8         1.2988         0.1488         2.4342         2.4342          2.406          2.406         0.1488
      6919.0000         1.3227        63.7333         1.3227         0.1509         2.4342         2.4342         2.4507         2.4507         0.1509
      6919.5000         1.3227           64.4         1.3227         0.1589         2.4211         2.4211         2.4427         2.4427         0.1589
      6920.0000         1.3147        65.8667         1.3147         0.1684         2.3947         2.3947         2.4293         2.4293         0.1684
      6920.5000         1.2989        67.3333         1.2989         0.1765         2.3684         2.3684         2.4167         2.4167         0.1765
      6921.0000         1.2833        68.9333         1.2833           0.18         2.3553         2.3553         2.4033         2.4033           0.18
      6921.5000         1.2757        69.8667         1.2757         0.1821         2.3947         2.3947         2.3905         2.3905         0.1821
      6922.0000         1.2993        70.1351         1.2993         0.1832         2.4342         2.4342         2.3858         2.3858         0.1832
      6922.5000         1.3154        69.3333         1.3154         0.1776         2.4342         2.4342         2.3736         2.3736         0.1776
      6923.0000         1.3156        68.1333         1.3156         0.1708         2.4211         2.4211         2.3723         2.3723         0.1708
      6923.5000         1.3482           67.6         1.3482         0.1657         2.4079         2.4079         2.3851         2.3851         0.1657
      6924.0000         1.3902        68.6667         1.3902         0.1657         2.3816         2.3816          2.398          2.398         0.1657
      6924.5000         1.4422        70.4054         1.4422         0.1662         2.3816         2.3816         2.4107         2.4107         0.1662
      6925.0000         1.4963         72.027         1.4963         0.1668         2.3684         2.3684          2.424          2.424         0.1668
      6925.5000         1.5524        70.6757         1.5524          0.167         2.3816         2.3816         2.4253         2.4253          0.167
      6926.0000         1.5622           68.4         1.5622         0.1692         2.4079         2.4079         2.4287         2.4287         0.1692
      6926.5000         1.5626           66.4         1.5626         0.1608         2.4605         2.4605         2.4147         2.4147         0.1608
      6927.0000         1.5628        66.5333         1.5628         0.1587            2.5            2.5         2.4007         2.4007         0.1587
