#------------------------------------------------------------------------------
# Created by    : mgeorge
# Created on    : 07/19/2023 10:29:23
#------------------------------------------------------------------------------
~Version Information Section
VERS.           2.0     :   CWLS log ASCII Standard - VERSION 2.0
WRAP.           NO      :   One line per depth step
~Well Information Section
#MNEM       .UNIT                                         VALUE :DESCRIPTION
#------------------------------------------------------------------------------
STRT        .FT                                             166 :START DEPTH
STOP        .FT                                           14648 :STOP DEPTH
STEP        .FT                                             0.5 :STEP      
NULL        .                                           -999.25 :NULL      
COMP        .                     DEVON ENERGY PRODUCTION CO LP :COMPANY   
WELL        .                          RIO BLANCO 4 FEDERAL COM :WELL      
FLD         .                               BELL LAKE NORTHEAST :FIELD     
LOC         .                                                   :LOCATION  
CNTY        .                                               LEA :LOCATION  
STAT        .                                        NEW MEXICO :STATE     
CTRY        .                                     UNITED STATES :COUNTRY   
SRVC        .                                                   :SERVICE COMPANY
DATE        .                               8/4/2022 3:29:17 PM :LOG DATE  
API         .                                    30025364250000 :API NUMBER
UWI         .                                    30025364250000 :UNIQUE WELL ID
XCOORD      .                                  1030633.57202521 :SURFACE X 
YCOORD      .                                  982685.374946431 :SURFACE Y 
LAT         .                                        32.3308251 :LATITUDE  
LON         .                                      -103.4713531 :LONGITUDE 
ELEV        .FT                                            3422 :ELEVATION VALUE
ELEV_TYPE   .                                                KB :ELEVATION REFERENCE TYPE
~Curve Information Section
#MNEM       .UNIT                                      API CODE :CURVE DESCRIPTION
#------------------------------------------------------------------------------
DEPT        .FT                                                 :DEPTH     
AF90        .OHMM                                               :AF90      
ASF90       .OHMM                                               :ARRAY INDUCTION FOUR FOOT RESISTIVITY A90
DRESWS      .OHMM                                               :DEEP INDUCTION RESISTIVITY
GR          .GAPI                                               :GR        
GRR         .GAPI                                               :GRR       
GRS         .GAPI                                               :GRS       
GRWS        .GAPI                                               :GAMMA RAY FROM SONIC LOG
RLA5        .OHMM                                               :RLA5      
~A        DEPTH           AF90          ASF90         DRESWS             GR            GRR            GRS           GRWS           RLA5
# ...
     12969.0000        -999.25        -999.25         7.8729       105.1724       120.6992       109.5718       109.5718         7.8729
     12969.5000        -999.25        -999.25        16.7565       104.6552       114.1953       105.2657       105.2657        16.7565
     12970.0000        -999.25        -999.25        32.2171        97.2222       106.1877        97.7171        97.7171        32.2171
     12970.5000        -999.25        -999.25         20.848        92.2222       105.2443        92.8869        92.8869         20.848
     12971.0000        -999.25        -999.25        13.3981        86.7857       110.0965        88.2745        88.2745        13.3981
     12971.5000        -999.25        -999.25         8.8894        90.7407       116.4451        88.1802        88.1802         8.8894
     12972.0000        -999.25        -999.25         6.8104        91.8519       121.5194        89.2858        89.2858         6.8104
     12972.5000        -999.25        -999.25         6.0569        88.2143       123.7783         88.687         88.687         6.0569
     12973.0000        -999.25        -999.25         9.7384          86.25       116.6244        86.6594        86.6594         9.7384
     12973.5000        -999.25        -999.25        17.5064        86.9643       108.3755        84.8348        84.8348        17.5064
     12974.0000        -999.25        -999.25        11.2281        87.1429       105.6944        85.7885        85.7885        11.2281
     12974.5000        -999.25        -999.25         6.0135             80       108.8916        89.4388        89.4388         6.0135
     12975.0000        -999.25        -999.25         4.9352        72.7586       110.2486        89.9161        89.9161         4.9352
     12975.5000        -999.25        -999.25        12.2136        71.0345       105.6507        86.6277        86.6277        12.2136
     12976.0000        -999.25        -999.25        21.2976        76.5517       103.2822        82.9939        82.9939        21.2976
     12976.5000        -999.25        -999.25        15.1817        85.8929       102.7767        82.5078        82.5078        15.1817
     12977.0000        -999.25        -999.25        10.9949            100       103.3765        83.9345        83.9345        10.9949
     12977.5000        -999.25        -999.25        13.1778       101.2069         102.03        85.4918        85.4918        13.1778
     12978.0000        -999.25        -999.25        16.7761       101.7241       102.9931        88.6077        88.6077        16.7761
     12978.5000        -999.25        -999.25         8.3246        94.8148       107.6011        93.8259        93.8259         8.3246
     12979.0000        -999.25        -999.25         7.6305        86.9643       117.9732        99.3172        99.3172         7.6305
     12979.5000        -999.25        -999.25         8.0806         77.931       123.8217        99.0297        99.0297         8.0806
     12980.0000        -999.25        -999.25         6.9005        65.8929       125.2341        95.5075        95.5075         6.9005
     12980.5000        -999.25        -999.25         8.5926        62.8571       123.8558        94.0943        94.0943         8.5926
     12981.0000        -999.25        -999.25        10.7454          66.25       120.6743        92.6109        92.6109        10.7454
     12981.5000        -999.25        -999.25        11.5913        73.1034       113.1184        89.4979        89.4979        11.5913
     12982.0000        -999.25        -999.25         16.875        79.1379       103.4359        83.1556        83.1556         16.875
     12982.5000        -999.25        -999.25        29.2888        85.7143        84.1421        74.7961        74.7961        29.2888
     12983.0000        -999.25        -999.25        41.3509        89.6429        77.3776        66.9875        66.9875        41.3509
     12983.5000        -999.25        -999.25        21.2162        89.1071        76.1683        63.3054        63.3054        21.2162
     12984.0000        -999.25        -999.25        16.8809        87.1429        84.6569        67.6063        67.6063        16.8809
     12984.5000        -999.25        -999.25         20.312          88.75        93.8526        76.7933        76.7933         20.312
     12985.0000        -999.25        -999.25         6.8802        91.2963       102.1772        86.6079        86.6079         6.8802
     12985.5000        -999.25        -999.25         5.5805        87.1429       111.7442        92.5064        92.5064         5.5805
     12986.0000        -999.25        -999.25         9.7135        86.4286       119.3614        94.5211        94.5211         9.7135
     12986.5000        -999.25        -999.25         6.3203       100.8621       116.5907        93.4762        93.4762         6.3203
     12987.0000        -999.25        -999.25         5.3078        102.931       113.6699        92.6345        92.6345         5.3078
     12987.5000        -999.25        -999.25          7.901       116.3158        113.319        95.9846        95.9846          7.901
     12988.0000        -999.25        -999.25          11.74       113.5088       111.2138        99.7577        99.7577          11.74
     12988.5000        -999.25        -999.25         7.3284       100.6897         106.31       101.3414       101.3414         7.3284
     12989.0000        -999.25        -999.25         6.7514        93.5185       105.4533        95.7897        95.7897         6.7514
     12989.5000        -999.25        -999.25         7.2594        91.1111       109.2946        92.2035        92.2035         7.2594
     12990.0000        -999.25        -999.25         5.8601        90.7407        120.754        94.8563        94.8563         5.8601
     12990.5000        -999.25        -999.25         5.6349       100.1724       128.8144        97.5248        97.5248         5.6349
     12991.0000        -999.25        -999.25         5.9728       106.3793       131.5295        99.3611        99.3611         5.9728
     12991.5000        -999.25        -999.25         6.1447       107.2414       129.5081        99.8262        99.8262         6.1447
     12992.0000        -999.25        -999.25         5.3056       103.1034       126.4667       100.5162       100.5162         5.3056
     12992.5000        -999.25        -999.25         4.6758        87.1429       126.6139       100.2169       100.2169         4.6758
     12993.0000        -999.25        -999.25         4.4325         72.931       126.4576       100.1149       100.1149         4.4325
     12993.5000        -999.25        -999.25         4.5787             65       126.3023       100.3832       100.3832         4.5787
     12994.0000        -999.25        -999.25         7.4667        65.7143        125.014        100.465        100.465         7.4667
     12994.5000        -999.25        -999.25        14.1496        79.3103       118.0842        95.6775        95.6775        14.1496
     12995.0000        -999.25        -999.25        64.0635        99.6552       105.7637        84.3109        84.3109        64.0635
     12995.5000        -999.25        -999.25         22.248       104.1379         95.074        72.4349        72.4349         22.248
     12996.0000        -999.25        -999.25        11.9497       108.7931        78.9192        62.3807        62.3807        11.9497
     12996.5000        -999.25        -999.25        16.1255       106.7241        83.2057        66.6252        66.6252        16.1255
     12997.0000        -999.25        -999.25         9.8182       101.7241        92.6355        77.3204        77.3204         9.8182
     12997.5000        -999.25        -999.25         9.2875             95       105.6087        88.0565        88.0565         9.2875
     12998.0000        -999.25        -999.25         7.3169       100.3448       120.7974         96.243         96.243         7.3169
