#------------------------------------------------------------------------------
# Created by    : mgeorge
# Created on    : 07/19/2023 10:29:21
#------------------------------------------------------------------------------
~Version Information Section
VERS.           2.0     :   CWLS log ASCII Standard - VERSION 2.0
WRAP.           NO      :   One line per depth step
~Well Information Section
#MNEM       .UNIT                                         VALUE :DESCRIPTION
#------------------------------------------------------------------------------
STRT        .FT                                             170 :START DEPTH
STOP        .FT                                            8880 :STOP DEPTH
STEP        .FT                                             0.5 :STEP      
NULL        .                                           -999.25 :NULL      
COMP        .                                       OXY USA INC :COMPANY   
WELL        .                             COVINGTON `A` FEDERAL :WELL      
FLD         .                                     RED TANK WEST :FIELD     
LOC         .                                                   :LOCATION  
CNTY        .                                               LEA :LOCATION  
STAT        .                                        NEW MEXICO :STATE     
CTRY        .                                     UNITED STATES :COUNTRY   
SRVC        .                                                   :SERVICE COMPANY
DATE        .                              8/3/2022 10:24:51 AM :LOG DATE  
API         .                                    30025349870000 :API NUMBER
UWI         .                                    30025349870000 :UNIQUE WELL ID
XCOORD      .                                  979541.866465641 :SURFACE X 
YCOORD      .                                  991455.566234473 :SURFACE Y 
LAT         .                                        32.3508526 :LATITUDE  
LON         .                                      -103.6374947 :LONGITUDE 
ELEV        .FT                                            3773 :ELEVATION VALUE
ELEV_TYPE   .                                                KB :ELEVATION REFERENCE TYPE
~Curve Information Section
#MNEM       .UNIT                                      API CODE :CURVE DESCRIPTION
#------------------------------------------------------------------------------
DEPT        .FT                                                 :DEPTH     
AF90        .OHMM                                               :AF90      
GR          .GAPI                                               :GR        
ILD         .                                                   :ILD       
NPHI        .                                                   :Nphi      
PE          .                                                   :PE        
PEFZ        .BE                                                 :PEFZ      
RHOB        .                                                   :RHOB      
RHOZ        .G/C3                                               :RHOZ      
TNPH        .V/V                                                :TNPH      
~A        DEPTH           AF90             GR            ILD           NPHI             PE           PEFZ           RHOB           RHOZ           TNPH
# ...
      8835.5000       136.7298        77.2973       136.7298         0.0808         4.3649         4.3649         2.6513         2.6513         0.0808
      8836.0000        113.748       100.3241        113.748         0.0811         4.4054         4.4054         2.6291         2.6291         0.0811
      8836.5000        91.1225       118.5135        91.1225         0.1056         4.4189         4.4189         2.6088         2.6088         0.1056
      8837.0000        73.0382        144.054        73.0382         0.1301         4.1622         4.1622         2.5393         2.5393         0.1301
      8837.5000        61.4982       162.6667        61.4982         0.1514          3.825          3.825         2.5393         2.5393         0.1514
      8838.0000        61.4982       148.2432        61.4982         0.1364         3.5958         3.5958         2.5393         2.5393         0.1364
      8838.5000        61.4982       133.6842        61.4982         0.1167         3.5012         3.5012         2.5753         2.5753         0.1167
      8839.0000        61.4982       146.3513        61.4982          0.121         3.5818         3.5818         2.6297         2.6297          0.121
      8839.5000             60       176.6216             60         0.1343         3.4735         3.4735         2.6297         2.6297         0.1343
      8840.0000         59.624       176.2162         59.624         0.1435          3.284          3.284          2.532          2.532         0.1435
      8840.5000          58.88       154.6629          58.88         0.1333         3.1486         3.1486         2.5307         2.5307         0.1333
      8841.0000         59.625       145.3952         59.625         0.1192         3.2295         3.2295         2.5493         2.5493         0.1192
      8841.5000        59.6256       154.2495        59.6256         0.1181         3.3777         3.3777         2.5593         2.5593         0.1181
      8842.0000        59.6262       160.2434        59.6262          0.126         3.4988         3.4988         2.5593         2.5593          0.126
      8842.5000        54.9828       151.4362        54.9828          0.133         3.6197         3.6197         2.5587         2.5587          0.133
      8843.0000         47.959        139.437         47.959         0.1414         3.7001         3.7001         2.5567         2.5567         0.1414
      8843.5000        41.0878        129.137        41.0878         0.1476         3.7803         3.7803          2.556          2.556         0.1476
      8844.0000        35.2572        117.027        35.2572         0.1372         3.7798         3.7798         2.5627         2.5627         0.1372
      8844.5000        30.6356       106.4865        30.6356         0.1208         3.8196         3.8196         2.5727         2.5727         0.1208
      8845.0000        28.9992       109.4595        28.9992         0.1117         3.8191         3.8191         2.5827         2.5827         0.1117
      8845.5000          27.28       137.4305          27.28         0.1218         3.7379         3.7379         2.5893         2.5893         0.1218
      8846.0000        26.4623       160.8629        26.4623         0.1276         3.5363         3.5363         2.5953         2.5953         0.1276
      8846.5000        27.1293       152.5829        27.1293         0.1273         3.3752         3.3752         2.5567         2.5567         0.1273
      8847.0000        27.8132       130.5686        27.8132         0.1071         3.2277         3.2277         2.5367         2.5367         0.1071
      8847.5000        28.5131       108.2432        28.5131         0.0869          3.281          3.281         2.5507         2.5507         0.0869
      8848.0000         29.412        73.0757         29.412         0.0665         3.3209         3.3209         2.5647         2.5647         0.0665
      8848.5000        27.1631        66.0901        27.1631         0.0721         3.3341         3.3341         2.6095         2.6095         0.0721
      8849.0000        24.9315        64.6034        24.9315         0.0797         3.3472         3.3472         2.6014         2.6014         0.0797
      8849.5000        22.6047        63.9248        22.6047         0.0882          3.347          3.347          2.578          2.578         0.0882
      8850.0000        20.4951        64.0558        20.4951         0.0965         3.3334         3.3334         2.4873         2.4873         0.0965
      8850.5000        17.4542        -999.25        17.4542         0.1107         3.2667         3.2667         2.4507         2.4507         0.1107
      8851.0000        14.9522        -999.25        14.9522         0.1266              3              3         2.4236         2.4236         0.1266
      8851.5000        12.5732        -999.25        12.5732         0.1382           2.76           2.76         2.4311         2.4311         0.1382
      8852.0000        12.4186        -999.25        12.4186         0.1541         2.4933         2.4933         2.4547         2.4547         0.1541
      8852.5000        13.2934        -999.25        13.2934         0.1641         2.4933         2.4933          2.482          2.482         0.1641
      8853.0000        14.3183        -999.25        14.3183         0.1635         2.5467         2.5467         2.4653         2.4653         0.1635
      8853.5000        15.7111        -999.25        15.7111         0.1622         2.6667         2.6667          2.448          2.448         0.1622
      8854.0000        16.9223        -999.25        16.9223         0.1608         2.7733         2.7733         2.4358         2.4358         0.1608
      8854.5000        19.0339        -999.25        19.0339          0.156         2.8667         2.8667         2.4432         2.4432          0.156
      8855.0000        20.6239        -999.25        20.6239         0.1507         2.9867         2.9867         2.4633         2.4633         0.1507
      8855.5000        22.4762        -999.25        22.4762         0.1477         3.0933         3.0933         2.4833         2.4833         0.1477
      8856.0000        24.3449        -999.25        24.3449         0.1485         3.1867         3.1867         2.5027         2.5027         0.1485
      8856.5000        26.8594        -999.25        26.8594        -999.25         3.1733         3.1733         2.5193         2.5193        -999.25
      8857.0000        29.0925        -999.25        29.0925        -999.25         3.0933         3.0933         2.5313         2.5313        -999.25
      8857.5000        31.8936        -999.25        31.8936        -999.25         3.0667         3.0667         2.5427         2.5427        -999.25
      8858.0000        35.8271        -999.25        35.8271        -999.25         3.1067         3.1067         2.5547         2.5547        -999.25
      8858.5000        43.3566        -999.25        43.3566        -999.25           3.28           3.28          2.566          2.566        -999.25
      8859.0000        51.2304        -999.25        51.2304        -999.25           3.48           3.48          2.578          2.578        -999.25
      8859.5000        62.6464        -999.25        62.6464        -999.25         3.5733         3.5733          2.578          2.578        -999.25
      8860.0000        75.2887        -999.25        75.2887        -999.25         3.6267         3.6267          2.566          2.566        -999.25
      8860.5000        93.9905        -999.25        93.9905        -999.25         3.6669         3.6669         2.6446         2.6446        -999.25
      8861.0000       116.5734        -999.25       116.5734        -999.25         3.7738         3.7738          2.652          2.652        -999.25
      8861.5000       130.1821        -999.25       130.1821        -999.25         4.0135         4.0135         2.6633         2.6633        -999.25
