#------------------------------------------------------------------------------
# Created by    : mgeorge
# Created on    : 07/19/2023 10:29:38
#------------------------------------------------------------------------------
~Version Information Section
VERS.           2.0     :   CWLS log ASCII Standard - VERSION 2.0
WRAP.           NO      :   One line per depth step
~Well Information Section
#MNEM       .UNIT                                         VALUE :DESCRIPTION
#------------------------------------------------------------------------------
STRT        .FT                                           11964 :START DEPTH
STOP        .FT                                         16416.5 :STOP DEPTH
STEP        .FT                                             0.5 :STEP      
NULL        .                                           -999.25 :NULL      
COMP        .              ADVANCE ENERGY PARTNERS HAT MESA LLC :COMPANY   
WELL        .                                  DAGGER STATE SWD :WELL      
FLD         .                                               SWD :FIELD     
LOC         .                                                   :LOCATION  
CNTY        .                                               LEA :LOCATION  
STAT        .                                        NEW MEXICO :STATE     
CTRY        .                                     UNITED STATES :COUNTRY   
SRVC        .                                                   :SERVICE COMPANY
DATE        .                              1/27/2023 5:38:29 PM :LOG DATE  
API         .                                    30025458150000 :API NUMBER
UWI         .                                    30025458150000 :UNIQUE WELL ID
XCOORD      .                                  990031.214140587 :SURFACE X 
YCOORD      .                                  1027167.67164026 :SURFACE Y 
LAT         .                                        32.4498049 :LATITUDE  
LON         .                                      -103.6069526 :LONGITUDE 
ELEV        .FT                                            3803 :ELEVATION VALUE
ELEV_TYPE   .                                                KB :ELEVATION REFERENCE TYPE
~Curve Information Section
#MNEM       .UNIT                                      API CODE :CURVE DESCRIPTION
#------------------------------------------------------------------------------
DEPT        .FT                                                 :DEPTH     
AF90        .OHMM                                               :AF90      
AFCO90      .MM/M                                               :Array Induction Four Foot Conductivity A90 {F13.4}
AT90        .OHMM                                               :AT90      
ATCO90      .MM/M                                               :ATCO90    
ATRT        .OHMM                                               :ATRT      
CNTC        .HZ                                                 :CNTC      
ECGR        .GAPI                                               :ECGR      
EHGR        .GAPI                                               :EHGR      
GAMMA       .UNITLESS                                           :GAMMA     
GR          .GAPI                                               :GR        
GR_EDTC     .GAPI                                               :GR_EDTC   
HCGR        .GAPI                                               :HCGR      
HGR         .GAPI                                               :HGR       
HNPO        .CFCF                                               :HNPO      
HSGR        .GAPI                                               :HSGR      
ILD         .                                                   :ILD       
MCGR        .GAPI                                               :MCGR      
NPHI        .CFCF                                               :Nphi      
NPOR        .CFCF                                               :NPOR      
NPOR_LIM    .CFCF                                               :NPOR_LIM  
PE          .                                                   :PE        
PEF         .                                                   :PEF       
PEF8        .                                                   :PEF8      
PEFZ        .                                                   :PEFZ      
RHO8        .G/C3                                               :RHO8      
RHOB        .                                                   :RHOB      
RHOZ        .G/C3                                               :RHOZ      
TNPH        .CFCF                                               :TNPH      
TNPH_LIM    .CFCF                                               :TNPH_LIM  
~A        DEPTH           AF90         AFCO90           AT90         ATCO90           ATRT           CNTC           ECGR           EHGR          GAMMA             GR        GR_EDTC           HCGR            HGR           HNPO           HSGR            ILD           MCGR           NPHI           NPOR       NPOR_LIM             PE            PEF           PEF8           PEFZ           RHO8           RHOB           RHOZ           TNPH       TNPH_LIM
# ...
     15096.0000        -999.25        -999.25        -999.25        -999.25        -999.25       1891.199         88.401         83.524        -999.25         86.873         88.706         72.276          82.08          0.255         92.056        -999.25         68.418          0.272           0.26           0.26        -999.25        -999.25          4.518           4.45          2.651        2.63989           2.64          0.266          0.266
     15096.5000        -999.25        -999.25        -999.25        -999.25        -999.25        1886.86         86.022         86.735        -999.25         84.535         87.631         73.595         85.236          0.256         91.054        -999.25         69.765          0.261          0.265          0.265        -999.25        -999.25           4.26          4.325           2.65        2.62963           2.63          0.266          0.266
     15097.0000        -999.25        -999.25        -999.25        -999.25        -999.25       1886.528         87.092         87.806        -999.25         85.586         84.328         74.431         86.288          0.267         93.598        -999.25         70.522          0.279          0.255          0.255        -999.25        -999.25          4.163          4.207          2.629        2.62621          2.627          0.256          0.256
     15097.5000        -999.25        -999.25        -999.25        -999.25        -999.25       1893.776         88.647         86.735        -999.25         87.115         78.485         74.904         85.236          0.265         93.658        -999.25         70.973          0.276           0.28           0.28        -999.25        -999.25          4.103           4.18          2.605        2.61937          2.619          0.272          0.272
     15098.0000        -999.25        -999.25        -999.25        -999.25        -999.25       1903.605         87.101          93.25        -999.25         85.595         80.032         73.199         91.638          0.271          91.97        -999.25          69.34          0.296          0.268          0.268        -999.25        -999.25          4.129          4.206          2.615        2.61424          2.615          0.263          0.263
     15098.5000        -999.25        -999.25        -999.25        -999.25        -999.25       1909.702         85.792         83.166        -999.25         84.309         84.619         74.934         81.728          0.285         91.222        -999.25         71.074          0.295          0.272          0.272        -999.25        -999.25          4.409          4.259          2.613        2.61595          2.616          0.281          0.281
     15099.0000        -999.25        -999.25        -999.25        -999.25        -999.25       1916.015           81.5         82.808        -999.25         80.091         91.089         74.327         81.377          0.277         89.666        -999.25         70.523          0.308          0.282          0.282        -999.25        -999.25          4.347          4.282          2.622        2.62792          2.628          0.287          0.287
     15099.5000        -999.25        -999.25        -999.25        -999.25        -999.25       1925.778         80.429         78.525        -999.25         79.039         93.219         73.892         77.168          0.318         89.196        -999.25         70.096            0.3          0.308          0.308        -999.25        -999.25          4.211          4.295          2.656        2.64673          2.646          0.307          0.307
     15100.0000        -999.25        -999.25        -999.25        -999.25        -999.25       1909.105         81.381         79.954        -999.25         79.974           92.2         70.566         78.572          0.318         87.691        -999.25         66.859          0.293          0.304          0.304        -999.25        -999.25          4.224          4.298          2.661        2.65528          2.655          0.299          0.299
     15100.5000        -999.25        -999.25        -999.25        -999.25        -999.25       1894.171         83.404         85.664        -999.25         81.962         94.511         73.922         84.183          0.276         89.796        -999.25         70.104          0.288          0.281          0.281        -999.25        -999.25          4.254          4.257          2.664        2.65357          2.654          0.289          0.289
     15101.0000        -999.25        -999.25        -999.25        -999.25        -999.25       1884.733         87.092         84.594        -999.25         85.587         98.394         73.863         83.132           0.28         92.259        -999.25         69.971          0.289          0.288          0.288        -999.25        -999.25          4.155          4.183          2.642         2.6416          2.642          0.285          0.285
     15101.5000        -999.25        -999.25        -999.25        -999.25        -999.25       1874.799         89.234         91.018        -999.25         87.691         93.358         70.886         89.445          0.291         90.256        -999.25         67.096          0.295          0.289          0.289        -999.25        -999.25          4.118          4.126          2.625        2.62963          2.629          0.287          0.287
     15102.0000        -999.25        -999.25        -999.25        -999.25        -999.25       1855.692         92.446         92.089        -999.25         90.848         88.281          70.79         90.497          0.276         89.365        -999.25         67.025          0.303          0.288          0.288        -999.25        -999.25           4.09          4.099          2.637        2.62963           2.63          0.292          0.292
     15102.5000        -999.25        -999.25        -999.25        -999.25        -999.25       1849.447         86.021         94.231        -999.25         84.534         87.801         70.685         92.602           0.31         89.763        -999.25         66.908          0.284          0.305          0.305        -999.25        -999.25          4.086          4.105          2.638        2.63647          2.637          0.301          0.301
     15103.0000        -999.25        -999.25        -999.25        -999.25        -999.25        1832.34         82.333         71.744        -999.25          80.91         94.134          68.06         70.503          0.265          90.25        -999.25         64.311          0.284           0.28           0.28        -999.25        -999.25           4.08           4.08          2.636        2.64502          2.646           0.28           0.28
     15103.5000        -999.25        -999.25        -999.25        -999.25        -999.25       1825.352         76.027         81.025        -999.25         74.713         96.705         70.269         79.624          0.276         90.841        -999.25         66.463          0.285          0.275          0.275        -999.25        -999.25          4.091          4.081          2.649        2.64673          2.647          0.278          0.278
     15104.0000        -999.25        -999.25        -999.25        -999.25        -999.25       1822.218         78.764         75.313        -999.25         77.402         97.952         66.931         74.011          0.306         89.685        -999.25         63.208          0.294           0.29           0.29        -999.25        -999.25          4.053          4.106          2.643        2.65015          2.651          0.281          0.281
     15104.5000        -999.25        -999.25        -999.25        -999.25        -999.25       1787.858         77.336         79.954        -999.25         75.999         96.354         67.198         78.571          0.277         89.607        -999.25         63.467          0.287          0.281          0.281        -999.25        -999.25           4.22          4.177          2.662        2.65357          2.654          0.293          0.293
