#------------------------------------------------------------------------------
# Created by    : mgeorge
# Created on    : 07/19/2023 10:29:23
#------------------------------------------------------------------------------
~Version Information Section
VERS.           2.0     :   CWLS log ASCII Standard - VERSION 2.0
WRAP.           NO      :   One line per depth step
~Well Information Section
#MNEM       .UNIT                                         VALUE :DESCRIPTION
#------------------------------------------------------------------------------
STRT        .FT                                             166 :START DEPTH
STOP        .FT                                           14648 :STOP DEPTH
STEP        .FT                                             0.5 :STEP      
NULL        .                                           -999.25 :NULL      
COMP        .                     DEVON ENERGY PRODUCTION CO LP :COMPANY   
WELL        .                          RIO BLANCO 4 FEDERAL COM :WELL      
FLD         .                               BELL LAKE NORTHEAST :FIELD     
LOC         .                                                   :LOCATION  
CNTY        .                                               LEA :LOCATION  
STAT        .                                        NEW MEXICO :STATE     
CTRY        .                                     UNITED STATES :COUNTRY   
SRVC        .                                                   :SERVICE COMPANY
DATE        .                               8/4/2022 3:29:17 PM :LOG DATE  
API         .                                    30025364250000 :API NUMBER
UWI         .                                    30025364250000 :UNIQUE WELL ID
XCOORD      .                                  1030633.57202521 :SURFACE X 
YCOORD      .                                  982685.374946431 :SURFACE Y 
LAT         .                                        32.3308251 :LATITUDE  
LON         .                                      -103.4713531 :LONGITUDE 
ELEV        .FT                                            3422 :ELEVATION VALUE
ELEV_TYPE   .                                                KB :ELEVATION REFERENCE TYPE
~Curve Information Section
#MNEM       .UNIT                                      API CODE :CURVE DESCRIPTION
#------------------------------------------------------------------------------
DEPT        .FT                                                 :DEPTH     
AF90        .OHMM                                               :AF90      
ASF90       .OHMM                                               :ARRAY INDUCTION FOUR FOOT RESISTIVITY A90
DRESWS      .OHMM                                               :DEEP INDUCTION RESISTIVITY
GR          .GAPI                                               :GR        
GRR         .GAPI                                               :GRR       
GRS         .GAPI                                               :GRS       
GRWS        .GAPI                                               :GAMMA RAY FROM SONIC LOG
RLA5        .OHMM                                               :RLA5      
~A        DEPTH           AF90          ASF90         DRESWS             GR            GRR            GRS           GRWS           RLA5
# ...
     14591.5000       111.6781            100       111.6781        -999.25        16.7866        -999.25        16.7866        -999.25
     14592.0000       138.5795       105.0673       138.5795        -999.25        16.2644        -999.25        16.2644        -999.25
     14592.5000       183.4495       131.2266       183.4495        -999.25        16.3625        -999.25        16.3625        -999.25
     14593.0000       261.3908       162.8591       261.3908        -999.25        17.3486        -999.25        17.3486        -999.25
     14593.5000       361.7097       242.9542       361.7097        -999.25        18.4005        -999.25        18.4005        -999.25
     14594.0000       636.2289       368.5481       636.2289        -999.25        19.2686        -999.25        19.2686        -999.25
     14594.5000       695.9235       557.8003       695.9235        -999.25        19.8658        -999.25        19.8658        -999.25
     14595.0000       633.1215       687.1704       633.1215        -999.25        19.8644        -999.25        19.8644        -999.25
     14595.5000       513.0613       638.1606       513.0613        -999.25        19.2614        -999.25        19.2614        -999.25
     14596.0000       374.1734        456.097       374.1734        -999.25        18.1161        -999.25        18.1161        -999.25
     14596.5000       236.7839       329.5986       236.7839        -999.25        17.0748        -999.25        17.0748        -999.25
     14597.0000       173.8658         242.44       173.8658        -999.25        15.9178        -999.25        15.9178        -999.25
     14597.5000       153.0163       168.6471       153.0163        -999.25        14.3551        -999.25        14.3551        -999.25
     14598.0000       145.6459       149.1069       145.6459        -999.25        13.0009        -999.25        13.0009        -999.25
     14598.5000       180.3211       150.9244       180.3211        -999.25         12.006        -999.25         12.006        -999.25
     14599.0000        234.912       178.1106        234.912        -999.25        11.4319        -999.25        11.4319        -999.25
     14599.5000       388.9541       262.1852       388.9541        -999.25        13.8357        -999.25        13.8357        -999.25
     14600.0000       538.1304       410.0882       538.1304        -999.25        15.9176        -999.25        15.9176        -999.25
     14600.5000       589.8938       547.6772       589.8938        -999.25        16.9834        -999.25        16.9834        -999.25
     14601.0000       546.5272       592.7316       546.5272        -999.25        16.5246        -999.25        16.5246        -999.25
     14601.5000       377.9618       499.6057       377.9618        -999.25        15.1215        -999.25        15.1215        -999.25
     14602.0000       245.3486       320.8945       245.3486        -999.25        14.4576        -999.25        14.4576        -999.25
     14602.5000       175.5739       197.5663       175.5739        -999.25         14.397        -999.25         14.397        -999.25
     14603.0000       124.2369       129.5248       124.2369        -999.25        14.2056        -999.25        14.2056        -999.25
     14603.5000        85.8189        97.1451        85.8189        -999.25        12.7907        -999.25        12.7907        -999.25
     14604.0000        72.7517        73.7615        72.7517        -999.25         11.818        -999.25         11.818        -999.25
     14604.5000        67.7004        68.9234        67.7004        -999.25        11.6632        -999.25        11.6632        -999.25
     14605.0000        70.2606        69.7789        70.2606        -999.25        14.8104        -999.25        14.8104        -999.25
     14605.5000        74.1225        72.8934        74.1225        -999.25        17.8322        -999.25        17.8322        -999.25
     14606.0000        81.3432        77.5626        81.3432        -999.25        20.1881        -999.25        20.1881        -999.25
     14606.5000       110.0027       100.9967       110.0027        -999.25        22.1564        -999.25        22.1564        -999.25
     14607.0000        198.919        146.548        198.919        -999.25        23.2589        -999.25        23.2589        -999.25
     14607.5000       294.6738       215.3013       294.6738        -999.25        26.3776        -999.25        26.3776        -999.25
     14608.0000       526.3541       334.9424       526.3541        -999.25        28.8935        -999.25        28.8935        -999.25
     14608.5000       918.8851       633.1105       918.8851        -999.25        28.0666        -999.25        28.0666        -999.25
     14609.0000       993.9816       940.3186       993.9816        -999.25        25.1199        -999.25        25.1199        -999.25
     14609.5000       1021.701       1018.573       1021.701        -999.25        23.3141        -999.25        23.3141        -999.25
     14610.0000        838.806       900.1129        838.806        -999.25        24.2582        -999.25        24.2582        -999.25
     14610.5000       689.1141       736.5296       689.1141        -999.25        25.6544        -999.25        25.6544        -999.25
     14611.0000       548.7294       621.7281       548.7294        -999.25        26.8323        -999.25        26.8323        -999.25
     14611.5000        466.929        515.967        466.929        -999.25        27.6232        -999.25        27.6232        -999.25
     14612.0000       351.1471       395.1331       351.1471        -999.25        28.3895        -999.25        28.3895        -999.25
     14612.5000        315.192       334.9424        315.192        -999.25         27.844        -999.25         27.844        -999.25
     14613.0000       299.9107       311.2224       299.9107        -999.25        26.8588        -999.25        26.8588        -999.25
     14613.5000       377.5625       322.8647       377.5625        -999.25        25.9608        -999.25        25.9608        -999.25
     14614.0000       479.5457       395.1331       479.5457        -999.25        25.0981        -999.25        25.0981        -999.25
     14614.5000       611.5467       503.1534       611.5467        -999.25        24.6736        -999.25        24.6736        -999.25
     14615.0000       631.5493       610.7674       631.5493        -999.25        24.3108        -999.25        24.3108        -999.25
     14615.5000       498.7002        607.157       498.7002        -999.25        25.1764        -999.25        25.1764        -999.25
     14616.0000       271.4674       358.2706       271.4674        -999.25        25.6241        -999.25        25.6241        -999.25
     14616.5000       174.8522       208.7884       174.8522        -999.25        23.9937        -999.25        23.9937        -999.25
     14617.0000        117.446       141.4214        117.446        -999.25           22.6        -999.25           22.6        -999.25
     14617.5000        79.2072       101.8408        79.2072        -999.25         23.811        -999.25         23.811        -999.25
     14618.0000        55.2795        71.7203        55.2795        -999.25        29.8028        -999.25        29.8028        -999.25
     14618.5000        49.8272         52.811        49.8272        -999.25        35.6893        -999.25        35.6893        -999.25
     14619.0000        53.6194        53.4568        53.6194        -999.25        36.7578        -999.25        36.7578        -999.25
     14619.5000        59.6914         58.559        59.6914        -999.25        32.9682        -999.25        32.9682        -999.25
     14620.0000          69.61        63.4238          69.61        -999.25        27.4973        -999.25        27.4973        -999.25
     14620.5000       133.7475       122.2194       133.7475        -999.25        21.6506        -999.25        21.6506        -999.25
