#------------------------------------------------------------------------------
# Created by    : mgeorge
# Created on    : 07/19/2023 10:29:38
#------------------------------------------------------------------------------
~Version Information Section
VERS.           2.0     :   CWLS log ASCII Standard - VERSION 2.0
WRAP.           NO      :   One line per depth step
~Well Information Section
#MNEM       .UNIT                                         VALUE :DESCRIPTION
#------------------------------------------------------------------------------
STRT        .FT                                           11964 :START DEPTH
STOP        .FT                                         16416.5 :STOP DEPTH
STEP        .FT                                             0.5 :STEP      
NULL        .                                           -999.25 :NULL      
COMP        .              ADVANCE ENERGY PARTNERS HAT MESA LLC :COMPANY   
WELL        .                                  DAGGER STATE SWD :WELL      
FLD         .                                               SWD :FIELD     
LOC         .                                                   :LOCATION  
CNTY        .                                               LEA :LOCATION  
STAT        .                                        NEW MEXICO :STATE     
CTRY        .                                     UNITED STATES :COUNTRY   
SRVC        .                                                   :SERVICE COMPANY
DATE        .                              1/27/2023 5:38:29 PM :LOG DATE  
API         .                                    30025458150000 :API NUMBER
UWI         .                                    30025458150000 :UNIQUE WELL ID
XCOORD      .                                  990031.214140587 :SURFACE X 
YCOORD      .                                  1027167.67164026 :SURFACE Y 
LAT         .                                        32.4498049 :LATITUDE  
LON         .                                      -103.6069526 :LONGITUDE 
ELEV        .FT                                            3803 :ELEVATION VALUE
ELEV_TYPE   .                                                KB :ELEVATION REFERENCE TYPE
~Curve Information Section
#MNEM       .UNIT                                      API CODE :CURVE DESCRIPTION
#------------------------------------------------------------------------------
DEPT        .FT                                                 :DEPTH     
AF90        .OHMM                                               :AF90      
AFCO90      .MM/M                                               :Array Induction Four Foot Conductivity A90 {F13.4}
AT90        .OHMM                                               :AT90      
ATCO90      .MM/M                                               :ATCO90    
ATRT        .OHMM                                               :ATRT      
CNTC        .HZ                                                 :CNTC      
ECGR        .GAPI                                               :ECGR      
EHGR        .GAPI                                               :EHGR      
GAMMA       .UNITLESS                                           :GAMMA     
GR          .GAPI                                               :GR        
GR_EDTC     .GAPI                                               :GR_EDTC   
HCGR        .GAPI                                               :HCGR      
HGR         .GAPI                                               :HGR       
HNPO        .CFCF                                               :HNPO      
HSGR        .GAPI                                               :HSGR      
ILD         .                                                   :ILD       
MCGR        .GAPI                                               :MCGR      
NPHI        .CFCF                                               :Nphi      
NPOR        .CFCF                                               :NPOR      
NPOR_LIM    .CFCF                                               :NPOR_LIM  
PE          .                                                   :PE        
PEF         .                                                   :PEF       
PEF8        .                                                   :PEF8      
PEFZ        .                                                   :PEFZ      
RHO8        .G/C3                                               :RHO8      
RHOB        .                                                   :RHOB      
RHOZ        .G/C3                                               :RHOZ      
TNPH        .CFCF                                               :TNPH      
TNPH_LIM    .CFCF                                               :TNPH_LIM  
~A        DEPTH           AF90         AFCO90           AT90         ATCO90           ATRT           CNTC           ECGR           EHGR          GAMMA             GR        GR_EDTC           HCGR            HGR           HNPO           HSGR            ILD           MCGR           NPHI           NPOR       NPOR_LIM             PE            PEF           PEF8           PEFZ           RHO8           RHOB           RHOZ           TNPH       TNPH_LIM
# ...
     15726.0000        -999.25        -999.25        -999.25        -999.25        -999.25       7448.317         30.577         26.056        -999.25         30.049         28.389          6.572         25.606         -0.008         30.286        -999.25          4.713         -0.002         -0.008         -0.008        -999.25        -999.25          4.821          4.407          2.701        2.70829          2.709         -0.008         -0.008
     15726.5000        -999.25        -999.25        -999.25        -999.25        -999.25       7341.478          34.98         37.478        -999.25         34.375         33.454          9.826          36.83         -0.002         32.816        -999.25          7.698         -0.001         -0.008         -0.008        -999.25        -999.25          3.666          4.118          2.674        2.68606          2.687         -0.007         -0.007
     15727.0000        -999.25        -999.25        -999.25        -999.25        -999.25       7318.928         37.835         41.404        -999.25         37.181         30.246         10.272         40.689         -0.005         31.692        -999.25          8.205         -0.001              0              0        -999.25        -999.25           3.94          4.009          2.678        2.66725          2.667         -0.005         -0.005
     15727.5000        -999.25        -999.25        -999.25        -999.25        -999.25        7363.53         33.195         34.623        -999.25         32.621         28.497           8.02         34.024         -0.004          24.17        -999.25          6.447         -0.001         -0.002         -0.002        -999.25        -999.25           3.41          4.302          2.658        2.65015           2.65         -0.006         -0.006
     15728.0000        -999.25        -999.25        -999.25        -999.25        -999.25       7475.244         26.413         23.558        -999.25         25.956         22.324          6.346          23.15         -0.008          17.74        -999.25          5.174         -0.003         -0.009         -0.009        -999.25        -999.25          5.168          4.821          2.685        2.66725          2.668         -0.008         -0.008
     15728.5000        -999.25        -999.25        -999.25        -999.25        -999.25        7571.49         20.345         21.059        -999.25         19.994         18.808          5.236         20.695         -0.011         15.639        -999.25          4.179         -0.004         -0.013         -0.013        -999.25        -999.25          5.558          5.262          2.731        2.69803          2.698         -0.011         -0.011
     15729.0000        -999.25        -999.25        -999.25        -999.25        -999.25       7622.133         21.304         16.419        -999.25         20.936         16.629          6.487         16.135         -0.018          17.19        -999.25          5.287         -0.004         -0.017         -0.017        -999.25        -999.25          5.562           5.24          2.737        2.72881           2.73         -0.012         -0.012
     15729.5000        -999.25        -999.25        -999.25        -999.25        -999.25       7575.868         24.041         26.175        -999.25         23.625         20.973          10.45         25.723         -0.008         21.687        -999.25          8.863         -0.004          -0.01          -0.01        -999.25        -999.25          4.957          4.949          2.734        2.72368          2.724         -0.011         -0.011
     15730.0000        -999.25        -999.25        -999.25        -999.25        -999.25       7514.435         28.205         29.269        -999.25         27.718         25.128         10.842         28.763         -0.007         23.626        -999.25          9.154         -0.003         -0.008         -0.008        -999.25        -999.25           3.75          4.725          2.671        2.69803          2.698          -0.01          -0.01
     15730.5000        -999.25        -999.25        -999.25        -999.25        -999.25       7462.473         27.424         28.912        -999.25          26.95         27.122          8.921         28.412         -0.002         21.335        -999.25          7.425         -0.002         -0.006         -0.006        -999.25        -999.25           4.94          4.733          2.684        2.68948          2.689         -0.009         -0.009
     15731.0000        -999.25        -999.25        -999.25        -999.25        -999.25       7438.151         25.997         23.855        -999.25         25.547         25.711           8.01         23.443          -0.01         19.374        -999.25          6.648         -0.002         -0.008         -0.008        -999.25        -999.25          5.487          4.852          2.723        2.70316          2.703         -0.009         -0.009
     15731.5000        -999.25        -999.25        -999.25        -999.25        -999.25       7416.102         27.424         24.985        -999.25          26.95         28.006          8.552         24.553         -0.009         20.111        -999.25          7.143         -0.002         -0.014         -0.014        -999.25        -999.25          4.846          4.714          2.741        2.71855          2.719         -0.009         -0.009
     15732.0000        -999.25        -999.25        -999.25        -999.25        -999.25       7402.948         33.195         33.195        -999.25         32.621         31.489          9.648         32.621         -0.008         27.017        -999.25          7.844         -0.002         -0.008         -0.008        -999.25        -999.25          4.154          4.487          2.703        2.70658          2.706         -0.008         -0.008
     15732.5000        -999.25        -999.25        -999.25        -999.25        -999.25       7387.153         38.251         41.404        -999.25          37.59          33.84          9.931         40.688         -0.002         30.575        -999.25          7.949         -0.001         -0.004         -0.004        -999.25        -999.25          3.862          4.408          2.687        2.69461          2.694         -0.006         -0.006
     15733.0000        -999.25        -999.25        -999.25        -999.25        -999.25        7388.64         35.991         40.215        -999.25         35.369          29.44          8.148         39.519          0.002         27.425        -999.25          6.414         -0.001         -0.002         -0.002        -999.25        -999.25           4.65          4.666          2.685        2.68948           2.69         -0.005         -0.005
     15733.5000        -999.25        -999.25        -999.25        -999.25        -999.25       7456.479         28.138         26.413        -999.25         27.652         21.887          6.749         25.957         -0.008         20.539        -999.25          5.429         -0.002         -0.004         -0.004        -999.25        -999.25          5.448          5.037          2.693        2.70145          2.701         -0.007         -0.007
     15734.0000        -999.25        -999.25        -999.25        -999.25        -999.25       7483.555         21.416         17.847        -999.25         21.046          18.44           6.07         17.538         -0.017         18.414        -999.25          4.891         -0.003         -0.014         -0.014        -999.25        -999.25          5.521          5.101          2.706        2.71171          2.712          -0.01          -0.01
     15734.5000        -999.25        -999.25        -999.25        -999.25        -999.25       7492.769         23.208         19.988        -999.25         22.807         19.632          7.187         19.643         -0.019         21.493        -999.25          5.866         -0.003         -0.014         -0.014        -999.25        -999.25          5.184           4.75           2.72        2.70829          2.709          -0.01          -0.01
