#------------------------------------------------------------------------------
# Created by    : mgeorge
# Created on    : 07/19/2023 10:29:23
#------------------------------------------------------------------------------
~Version Information Section
VERS.           2.0     :   CWLS log ASCII Standard - VERSION 2.0
WRAP.           NO      :   One line per depth step
~Well Information Section
#MNEM       .UNIT                                         VALUE :DESCRIPTION
#------------------------------------------------------------------------------
STRT        .FT                                             166 :START DEPTH
STOP        .FT                                           14648 :STOP DEPTH
STEP        .FT                                             0.5 :STEP      
NULL        .                                           -999.25 :NULL      
COMP        .                     DEVON ENERGY PRODUCTION CO LP :COMPANY   
WELL        .                          RIO BLANCO 4 FEDERAL COM :WELL      
FLD         .                               BELL LAKE NORTHEAST :FIELD     
LOC         .                                                   :LOCATION  
CNTY        .                                               LEA :LOCATION  
STAT        .                                        NEW MEXICO :STATE     
CTRY        .                                     UNITED STATES :COUNTRY   
SRVC        .                                                   :SERVICE COMPANY
DATE        .                               8/4/2022 3:29:17 PM :LOG DATE  
API         .                                    30025364250000 :API NUMBER
UWI         .                                    30025364250000 :UNIQUE WELL ID
XCOORD      .                                  1030633.57202521 :SURFACE X 
YCOORD      .                                  982685.374946431 :SURFACE Y 
LAT         .                                        32.3308251 :LATITUDE  
LON         .                                      -103.4713531 :LONGITUDE 
ELEV        .FT                                            3422 :ELEVATION VALUE
ELEV_TYPE   .                                                KB :ELEVATION REFERENCE TYPE
~Curve Information Section
#MNEM       .UNIT                                      API CODE :CURVE DESCRIPTION
#------------------------------------------------------------------------------
DEPT        .FT                                                 :DEPTH     
AF90        .OHMM                                               :AF90      
ASF90       .OHMM                                               :ARRAY INDUCTION FOUR FOOT RESISTIVITY A90
DRESWS      .OHMM                                               :DEEP INDUCTION RESISTIVITY
GR          .GAPI                                               :GR        
GRR         .GAPI                                               :GRR       
GRS         .GAPI                                               :GRS       
GRWS        .GAPI                                               :GAMMA RAY FROM SONIC LOG
RLA5        .OHMM                                               :RLA5      
~A        DEPTH           AF90          ASF90         DRESWS             GR            GRR            GRS           GRWS           RLA5
# ...
     11789.0000        -999.25        -999.25        -999.25        24.2593        23.2264        16.2956        19.7566        -999.25
     11789.5000        -999.25        -999.25        -999.25        21.4815        15.0746        11.1415        13.7186        -999.25
     11790.0000        -999.25        -999.25        -999.25        20.1852        12.9813          12.06        11.6008        -999.25
     11790.5000        -999.25        -999.25        -999.25        20.1852        19.7848        18.4431        15.2516        -999.25
     11791.0000        -999.25        -999.25        -999.25             20        24.2296        24.5538        21.4984        -999.25
     11791.5000        -999.25        -999.25        -999.25        19.6491        27.9539        30.0385        27.2961        -999.25
     11792.0000        -999.25        -999.25        -999.25             20        30.4835        35.1901        32.6143        -999.25
     11792.5000        -999.25        -999.25        -999.25        20.9259        35.8135        37.7441        36.4671        -999.25
     11793.0000        -999.25        -999.25        -999.25        22.4074        42.4617        36.2775        37.0108        -999.25
     11793.5000        -999.25        -999.25        -999.25        22.7778        45.4982        31.8568        34.0671        -999.25
     11794.0000        -999.25        -999.25        -999.25        22.4074        37.4148        27.1884        29.5226        -999.25
     11794.5000        -999.25        -999.25        -999.25        22.5926        29.5904        23.6944        25.4414        -999.25
     11795.0000        -999.25        -999.25        -999.25        23.7037        24.8335        21.8678        22.7811        -999.25
     11795.5000        -999.25        -999.25        -999.25        24.0741        21.2592        19.7923        20.8301        -999.25
     11796.0000        -999.25        -999.25        -999.25        24.0741        19.4922        19.2848        19.5386        -999.25
     11796.5000        -999.25        -999.25        -999.25        24.6296        21.0116        20.3627        19.8238        -999.25
     11797.0000        -999.25        -999.25        -999.25        23.7037        23.8283        22.4896        21.4262        -999.25
     11797.5000        -999.25        -999.25        -999.25        21.1111        26.7113        23.0053        22.7475        -999.25
     11798.0000        -999.25        -999.25        -999.25        18.9474         27.832        22.0446        22.5249        -999.25
     11798.5000        -999.25        -999.25        -999.25         17.193        24.8091        20.7409        21.3928        -999.25
     11799.0000        -999.25        -999.25        -999.25        15.9649        23.6884        21.1532         20.947        -999.25
     11799.5000        -999.25        -999.25        -999.25        13.1579        24.4379        22.7991        21.9762        -999.25
     11800.0000        -999.25        -999.25        -999.25        10.3509        25.9114        24.3454        23.5723        -999.25
     11800.5000        -999.25        -999.25        -999.25        11.0526        27.9035        23.3335        23.8395        -999.25
     11801.0000        -999.25        -999.25        -999.25        13.3333        27.6018        20.9136        22.1236        -999.25
     11801.5000        -999.25        -999.25        -999.25        17.3684        26.7668        18.8544         19.884        -999.25
     11802.0000        -999.25        -999.25        -999.25        20.5556        25.9427         19.034        18.9442        -999.25
     11802.5000        -999.25        -999.25        -999.25        18.9474        27.4656        21.0603        20.0472        -999.25
     11803.0000        -999.25        -999.25        -999.25         14.386        27.9035        21.1927        21.1265        -999.25
     11803.5000        -999.25        -999.25        -999.25        12.1053         26.911        19.7163        20.4545        -999.25
     11804.0000        -999.25        -999.25        -999.25        10.8772        23.8765        16.7055        18.2109        -999.25
     11804.5000        -999.25        -999.25        -999.25        13.6842        18.8058        13.3661        15.0358        -999.25
     11805.0000        -999.25        -999.25        -999.25        19.1228        16.5913         12.315        12.8406        -999.25
     11805.5000        -999.25        -999.25        -999.25        24.6296        14.6305        12.2503        12.2827        -999.25
     11806.0000        -999.25        -999.25        -999.25        24.6296        14.0271        11.4791        11.8647        -999.25
     11806.5000        -999.25        -999.25        -999.25             20        14.4248        11.3732        11.4262        -999.25
     11807.0000        -999.25        -999.25        -999.25        15.4386         15.551        12.1357        11.3732        -999.25
     11807.5000        -999.25        -999.25        -999.25        13.6842         18.233        13.8532        12.1357        -999.25
     11808.0000        -999.25        -999.25        -999.25        15.4386        22.1538         15.871        13.8532        -999.25
     11808.5000        -999.25        -999.25        -999.25        16.8421        22.7188        16.2219         15.871        -999.25
     11809.0000        -999.25        -999.25        -999.25         14.386        20.9116        14.5621        16.2219        -999.25
     11809.5000        -999.25        -999.25        -999.25        12.1053        16.7421        12.6352        14.5621        -999.25
     11810.0000        -999.25        -999.25        -999.25        13.3333        13.6458        12.1265        12.6352        -999.25
     11810.5000        -999.25        -999.25        -999.25        16.3158        13.1742        14.1061        12.1265        -999.25
     11811.0000        -999.25        -999.25        -999.25        16.8421        17.2775        19.7018        14.1061        -999.25
     11811.5000        -999.25        -999.25        -999.25        13.5088        24.6657         27.748        19.7018        -999.25
     11812.0000        -999.25        -999.25        -999.25        11.2281        30.9134        30.0871         27.748        -999.25
     11812.5000        -999.25        -999.25        -999.25             10        34.6232        27.3212        30.0871        -999.25
     11813.0000        -999.25        -999.25        -999.25        13.6842        29.0306        21.8706        27.3212        -999.25
     11813.5000        -999.25        -999.25        -999.25        16.6667        19.2257        16.0182        21.8706        -999.25
     11814.0000        -999.25        -999.25        -999.25        18.0702        15.2338        16.9405        16.0182        -999.25
     11814.5000        -999.25        -999.25        -999.25        18.2456         15.083        19.4319        16.9405        -999.25
     11815.0000        -999.25        -999.25        -999.25         17.193        15.1908        19.2331        19.4319        -999.25
     11815.5000        -999.25        -999.25        -999.25        14.9123        15.8884        18.1068        19.2331        -999.25
     11816.0000        -999.25        -999.25        -999.25         12.807        19.8036         17.914        18.1068        -999.25
     11816.5000        -999.25        -999.25        -999.25        10.3509         24.968         19.446         17.914        -999.25
     11817.0000        -999.25        -999.25        -999.25         8.6207        26.0935        20.4245         19.446        -999.25
     11817.5000        -999.25        -999.25        -999.25        11.5789         25.052        18.7673        20.4245        -999.25
     11818.0000        -999.25        -999.25        -999.25        16.3158        21.2368        16.8074        18.7673        -999.25
