#------------------------------------------------------------------------------
# Created by    : mgeorge
# Created on    : 07/19/2023 10:29:21
#------------------------------------------------------------------------------
~Version Information Section
VERS.           2.0     :   CWLS log ASCII Standard - VERSION 2.0
WRAP.           NO      :   One line per depth step
~Well Information Section
#MNEM       .UNIT                                         VALUE :DESCRIPTION
#------------------------------------------------------------------------------
STRT        .FT                                             170 :START DEPTH
STOP        .FT                                            8880 :STOP DEPTH
STEP        .FT                                             0.5 :STEP      
NULL        .                                           -999.25 :NULL      
COMP        .                                       OXY USA INC :COMPANY   
WELL        .                             COVINGTON `A` FEDERAL :WELL      
FLD         .                                     RED TANK WEST :FIELD     
LOC         .                                                   :LOCATION  
CNTY        .                                               LEA :LOCATION  
STAT        .                                        NEW MEXICO :STATE     
CTRY        .                                     UNITED STATES :COUNTRY   
SRVC        .                                                   :SERVICE COMPANY
DATE        .                              8/3/2022 10:24:51 AM :LOG DATE  
API         .                                    30025349870000 :API NUMBER
UWI         .                                    30025349870000 :UNIQUE WELL ID
XCOORD      .                                  979541.866465641 :SURFACE X 
YCOORD      .                                  991455.566234473 :SURFACE Y 
LAT         .                                        32.3508526 :LATITUDE  
LON         .                                      -103.6374947 :LONGITUDE 
ELEV        .FT                                            3773 :ELEVATION VALUE
ELEV_TYPE   .                                                KB :ELEVATION REFERENCE TYPE
~Curve Information Section
#MNEM       .UNIT                                      API CODE :CURVE DESCRIPTION
#------------------------------------------------------------------------------
DEPT        .FT                                                 :DEPTH     
AF90        .OHMM                                               :AF90      
GR          .GAPI                                               :GR        
ILD         .                                                   :ILD       
NPHI        .                                                   :Nphi      
PE          .                                                   :PE        
PEFZ        .BE                                                 :PEFZ      
RHOB        .                                                   :RHOB      
RHOZ        .G/C3                                               :RHOZ      
TNPH        .V/V                                                :TNPH      
~A        DEPTH           AF90             GR            ILD           NPHI             PE           PEFZ           RHOB           RHOZ           TNPH
# ...
      8570.5000         2.7025           55.2         2.7025         0.0795          2.213          2.213         2.4967         2.4967         0.0795
      8571.0000         2.7868        56.6667         2.7868         0.0789         2.2125         2.2125         2.4967         2.4967         0.0789
      8571.5000         2.7697        56.6667         2.7697         0.0824          2.212          2.212         2.4967         2.4967         0.0824
      8572.0000         2.7191           54.4         2.7191         0.0901         2.1446         2.1446         2.4967         2.4967         0.0901
      8572.5000         2.6695        52.1333         2.6695         0.0955         2.0638         2.0638         2.4987         2.4987         0.0955
      8573.0000         2.6531        51.8667         2.6531         0.0971         2.0899         2.0899          2.502          2.502         0.0971
      8573.5000         2.7025           52.8         2.7025         0.0987         2.1831         2.1831         2.5047         2.5047         0.0987
      8574.0000         2.8212        52.6667         2.8212         0.1008         2.2764         2.2764         2.5173         2.5173         0.1008
      8574.5000         2.8212        52.5333         2.8212         0.1025         2.3027         2.3027         2.5307         2.5307         0.1025
      8575.0000         2.8561        53.0667         2.8561         0.1036         2.2888         2.2888         2.5407         2.5407         0.1036
      8575.5000         2.8561        53.0667         2.8561         0.1049          2.248          2.248          2.512          2.512         0.1049
      8576.0000         2.8561        56.5333         2.8561         0.1063         2.2207         2.2207         2.4833         2.4833         0.1063
      8576.5000         2.8386           59.6         2.8386         0.1088         2.1933         2.1933          2.476          2.476         0.1088
      8577.0000         2.7868           59.2         2.7868         0.1096         2.2869         2.2869           2.48           2.48         0.1096
      8577.5000         2.7359        58.2667         2.7359         0.1074         2.3807         2.3807         2.4647         2.4647         0.1074
      8578.0000         2.7025        57.0667         2.7025          0.114         2.4745         2.4745         2.4351         2.4351          0.114
      8578.5000         2.6859           56.8         2.6859         0.1216         2.4607         2.4607         2.4277         2.4277         0.1216
      8579.0000         2.9092        57.3333         2.9092         0.1231         2.4469         2.4469         2.4432         2.4432         0.1231
      8579.5000         3.2089        59.4667         3.2089         0.1167           2.46           2.46         2.4673         2.4673         0.1167
      8580.0000         3.5175        62.1333         3.5175         0.1126         2.4731         2.4731         2.4833         2.4833         0.1126
      8580.5000         3.8322        65.4667         3.8322          0.114         2.4595         2.4595         2.5147         2.5147          0.114
      8581.0000         4.1977        68.5333         4.1977         0.1156         2.4324         2.4324         2.5467         2.5467         0.1156
      8581.5000         4.5952        71.0811         4.5952         0.1151         2.4189         2.4189          2.546          2.546         0.1151
      8582.0000         5.0633        73.5135         5.0633         0.1137         2.4189         2.4189          2.552          2.552         0.1137
      8582.5000         6.0357        75.9459         6.0357         0.1151         2.4189         2.4189          2.558          2.558         0.1151
      8583.0000         7.4596        80.6667         7.4596          0.117         2.3378         2.3378          2.564          2.564          0.117
      8583.5000         9.4575           87.6         9.4575         0.1186         2.3108         2.3108         2.5893         2.5893         0.1186
      8584.0000        12.1149        95.4795        12.1149         0.1189         2.4189         2.4189         2.6149         2.6149         0.1189
      8584.5000        17.6716            100        17.6716         0.1186         2.5946         2.5946         2.6162         2.6162         0.1186
      8585.0000        30.7436       103.1081        30.7436         0.1173         2.7432         2.7432         2.6169         2.6169         0.1173
      8585.5000        46.9949            100        46.9949         0.1148         2.8514         2.8514          2.625          2.625         0.1148
      8586.0000        53.9181           83.6        53.9181         0.1077         2.9054         2.9054         2.6412         2.6412         0.1077
      8586.5000        60.7445        75.1351        60.7445         0.0923           3.12           3.12         2.6466         2.6466         0.0923
      8587.0000        64.2108             68        64.2108         0.0768           3.48           3.48         2.6277         2.6277         0.0768
      8587.5000        54.9447        73.7838        54.9447         0.0645         3.7067         3.7067         2.6135         2.6135         0.0645
      8588.0000        46.7045        79.1892        46.7045         0.0603           3.72           3.72         2.6203         2.6203         0.0603
      8588.5000        40.7508        79.4595        40.7508         0.0579         3.3067         3.3067         2.6466         2.6466         0.0579
      8589.0000        34.9605        80.6667        34.9605         0.0587         2.8919         2.8919         2.6284         2.6284         0.0587
      8589.5000             30        83.8667             30         0.0603         2.6486         2.6486         2.6095         2.6095         0.0603
      8590.0000        26.8594        82.9333        26.8594         0.0605         2.5811         2.5811         2.5907         2.5907         0.0605
      8590.5000        26.8549         77.973        26.8549         0.0563            2.5            2.5         2.5827         2.5827         0.0563
      8591.0000        28.8998         72.973        28.8998         0.0508         2.5676         2.5676         2.6041         2.6041         0.0508
      8591.5000        31.4848           68.8        31.4848         0.0458         2.7027         2.7027         2.6324         2.6324         0.0458
      8592.0000        34.3046        66.9333        34.3046         0.0458         2.8649         2.8649         2.6324         2.6324         0.0458
      8592.5000        37.8458           67.2        37.8458           0.05         2.9865         2.9865         2.6223         2.6223           0.05
      8593.0000        41.2591        70.2703        41.2591         0.0542         2.9324         2.9324         2.6095         2.6095         0.0542
      8593.5000        44.9994        75.1351        44.9994         0.0584         2.8514         2.8514         2.5993         2.5993         0.0584
      8594.0000        47.2871         77.027        47.2871         0.0653         2.7703         2.7703         2.5893         2.5893         0.0653
      8594.5000        47.5811        74.7297        47.5811         0.0765         2.7297         2.7297         2.6176         2.6176         0.0765
      8595.0000        44.1704        72.5676        44.1704         0.0861          2.973          2.973          2.664          2.664         0.0861
      8595.5000        38.0672        77.7027        38.0672         0.0963           3.24           3.24          2.664          2.664         0.0963
      8596.0000        33.4203            100        33.4203         0.1132         3.2533         3.2533          2.664          2.664         0.1132
      8596.5000        29.3391       104.3243        29.3391         0.1276         3.0533         3.0533         2.5927         2.5927         0.1276
