#------------------------------------------------------------------------------
# Created by    : mgeorge
# Created on    : 07/19/2023 10:29:38
#------------------------------------------------------------------------------
~Version Information Section
VERS.           2.0     :   CWLS log ASCII Standard - VERSION 2.0
WRAP.           NO      :   One line per depth step
~Well Information Section
#MNEM       .UNIT                                         VALUE :DESCRIPTION
#------------------------------------------------------------------------------
STRT        .FT                                           11964 :START DEPTH
STOP        .FT                                         16416.5 :STOP DEPTH
STEP        .FT                                             0.5 :STEP      
NULL        .                                           -999.25 :NULL      
COMP        .              ADVANCE ENERGY PARTNERS HAT MESA LLC :COMPANY   
WELL        .                                  DAGGER STATE SWD :WELL      
FLD         .                                               SWD :FIELD     
LOC         .                                                   :LOCATION  
CNTY        .                                               LEA :LOCATION  
STAT        .                                        NEW MEXICO :STATE     
CTRY        .                                     UNITED STATES :COUNTRY   
SRVC        .                                                   :SERVICE COMPANY
DATE        .                              1/27/2023 5:38:29 PM :LOG DATE  
API         .                                    30025458150000 :API NUMBER
UWI         .                                    30025458150000 :UNIQUE WELL ID
XCOORD      .                                  990031.214140587 :SURFACE X 
YCOORD      .                                  1027167.67164026 :SURFACE Y 
LAT         .                                        32.4498049 :LATITUDE  
LON         .                                      -103.6069526 :LONGITUDE 
ELEV        .FT                                            3803 :ELEVATION VALUE
ELEV_TYPE   .                                                KB :ELEVATION REFERENCE TYPE
~Curve Information Section
#MNEM       .UNIT                                      API CODE :CURVE DESCRIPTION
#------------------------------------------------------------------------------
DEPT        .FT                                                 :DEPTH     
AF90        .OHMM                                               :AF90      
AFCO90      .MM/M                                               :Array Induction Four Foot Conductivity A90 {F13.4}
AT90        .OHMM                                               :AT90      
ATCO90      .MM/M                                               :ATCO90    
ATRT        .OHMM                                               :ATRT      
CNTC        .HZ                                                 :CNTC      
ECGR        .GAPI                                               :ECGR      
EHGR        .GAPI                                               :EHGR      
GAMMA       .UNITLESS                                           :GAMMA     
GR          .GAPI                                               :GR        
GR_EDTC     .GAPI                                               :GR_EDTC   
HCGR        .GAPI                                               :HCGR      
HGR         .GAPI                                               :HGR       
HNPO        .CFCF                                               :HNPO      
HSGR        .GAPI                                               :HSGR      
ILD         .                                                   :ILD       
MCGR        .GAPI                                               :MCGR      
NPHI        .CFCF                                               :Nphi      
NPOR        .CFCF                                               :NPOR      
NPOR_LIM    .CFCF                                               :NPOR_LIM  
PE          .                                                   :PE        
PEF         .                                                   :PEF       
PEF8        .                                                   :PEF8      
PEFZ        .                                                   :PEFZ      
RHO8        .G/C3                                               :RHO8      
RHOB        .                                                   :RHOB      
RHOZ        .G/C3                                               :RHOZ      
TNPH        .CFCF                                               :TNPH      
TNPH_LIM    .CFCF                                               :TNPH_LIM  
~A        DEPTH           AF90         AFCO90           AT90         ATCO90           ATRT           CNTC           ECGR           EHGR          GAMMA             GR        GR_EDTC           HCGR            HGR           HNPO           HSGR            ILD           MCGR           NPHI           NPOR       NPOR_LIM             PE            PEF           PEF8           PEFZ           RHO8           RHOB           RHOZ           TNPH       TNPH_LIM
# ...
     15303.0000        -999.25        -999.25        -999.25        -999.25        -999.25       1979.587         98.157         99.585        -999.25          96.46         99.619         75.406         97.863           0.28         98.698        -999.25         71.864          0.294          0.287          0.287        -999.25        -999.25          4.851          4.612          2.708        2.66212          2.663          0.303          0.303
     15303.5000        -999.25        -999.25        -999.25        -999.25        -999.25       1977.713        101.488         95.659        -999.25         99.734         96.179         74.068         94.005          0.257         96.273        -999.25          70.58          0.299          0.268          0.268        -999.25        -999.25           5.23          4.581           2.71        2.68093          2.682          0.287          0.287
     15304.0000        -999.25        -999.25        -999.25        -999.25        -999.25       1992.458        103.429        109.222        -999.25        101.641         93.903         74.018        107.334          0.311         93.469        -999.25         70.591          0.313          0.302          0.302        -999.25        -999.25          4.063          4.444          2.604         2.6587          2.659          0.306          0.306
     15304.5000        -999.25        -999.25        -999.25        -999.25        -999.25       1952.571         105.69         105.83        -999.25        103.863        100.333         76.459        104.001           0.37         96.491        -999.25         72.927           0.33          0.343          0.343        -999.25        -999.25          4.077          4.241          2.628        2.63476          2.634          0.323          0.323
     15305.0000        -999.25        -999.25        -999.25        -999.25        -999.25       1913.382        103.905        103.125        -999.25        102.109        101.438         80.606        101.342          0.294        101.588        -999.25         76.912           0.33          0.326          0.326        -999.25        -999.25          4.159          4.132          2.628        2.60911          2.609          0.334          0.334
     15305.5000        -999.25        -999.25        -999.25        -999.25        -999.25        1899.11         103.63        103.005        -999.25        101.839        106.369         82.646        101.224          0.333        104.147        -999.25          78.88          0.345          0.337          0.337        -999.25        -999.25          4.025          4.109          2.593        2.60227          2.603          0.329          0.329
     15306.0000        -999.25        -999.25        -999.25        -999.25        -999.25       1911.263        105.057        104.582        -999.25        103.241        108.743         86.317        102.774          0.353         106.49        -999.25         82.459          0.349          0.348          0.348        -999.25        -999.25          4.036          4.116          2.619        2.61424          2.615          0.341          0.341
     15306.5000        -999.25        -999.25        -999.25        -999.25        -999.25       1909.548        103.868        106.723        -999.25        102.072        110.998         83.473        104.878          0.321        103.273        -999.25         79.752           0.35          0.333          0.333        -999.25        -999.25          4.017          4.154          2.632        2.62963          2.629           0.34           0.34
     15307.0000        -999.25        -999.25        -999.25        -999.25        -999.25       1924.252        104.582        100.298        -999.25        102.774        107.245          84.74         98.565          0.337        103.957        -999.25         80.988          0.326          0.346          0.346        -999.25        -999.25          4.421          4.166          2.671        2.64502          2.646          0.347          0.347
     15307.5000        -999.25        -999.25        -999.25        -999.25        -999.25       1913.447        104.106        106.724        -999.25        102.306        104.235         86.764        104.879          0.319        105.451        -999.25         82.977          0.324          0.323          0.323        -999.25        -999.25          4.021          4.199          2.627        2.63989           2.64          0.328          0.328
     15308.0000        -999.25        -999.25        -999.25        -999.25        -999.25       1883.319        106.843        105.295        -999.25        104.996        101.479         86.125        103.475           0.32        108.112        -999.25           82.3          0.322          0.319          0.319        -999.25        -999.25          4.131           4.23           2.65        2.63647          2.637          0.331          0.331
     15308.5000        -999.25        -999.25        -999.25        -999.25        -999.25       1895.257        106.366        108.508        -999.25        104.528         102.46         88.313        106.633          0.316        110.487        -999.25          84.41          0.332          0.343          0.343        -999.25        -999.25          4.368          4.211          2.648        2.63818          2.638          0.327          0.327
     15309.0000        -999.25        -999.25        -999.25        -999.25        -999.25       1887.557        106.961        105.295        -999.25        105.112         105.31         84.849        103.475          0.366        108.587        -999.25         81.039           0.34          0.353          0.353        -999.25        -999.25          4.111          4.183          2.638        2.64844          2.648          0.329          0.329
     15309.5000        -999.25        -999.25        -999.25        -999.25        -999.25       1880.175        113.148        106.366        -999.25        111.192        108.576         85.989        104.527          0.305        108.152        -999.25         82.168          0.326          0.301          0.301        -999.25        -999.25          4.046          4.146          2.636        2.64502          2.646          0.325          0.325
     15310.0000        -999.25        -999.25        -999.25        -999.25        -999.25       1875.811        113.624        127.069        -999.25         111.66        111.383         83.897        124.872          0.336         107.68        -999.25         80.127          0.323           0.32           0.32        -999.25        -999.25          4.339          4.183           2.65        2.63818          2.638          0.325          0.325
     15310.5000        -999.25        -999.25        -999.25        -999.25        -999.25       1907.584         115.29        106.723        -999.25        113.297        110.528         82.719        104.878          0.335        108.627        -999.25         78.941          0.299          0.328          0.328        -999.25        -999.25          4.142          4.201          2.631        2.63134          2.632          0.326          0.326
     15311.0000        -999.25        -999.25        -999.25        -999.25        -999.25       1890.009        109.103        112.078        -999.25        107.217        108.474         77.846         110.14          0.306        105.066        -999.25         74.211          0.315          0.314          0.314        -999.25        -999.25          4.216          4.233          2.643        2.63818          2.639          0.295          0.295
     15311.5000        -999.25        -999.25        -999.25        -999.25        -999.25       1901.623        112.197        108.508        -999.25        110.257        105.119         73.084        106.633          0.277        103.399        -999.25         69.553          0.312          0.291          0.291        -999.25        -999.25          4.135          4.278          2.655        2.64844          2.648          0.301          0.301
