#------------------------------------------------------------------------------
# Created by    : mgeorge
# Created on    : 07/19/2023 10:29:38
#------------------------------------------------------------------------------
~Version Information Section
VERS.           2.0     :   CWLS log ASCII Standard - VERSION 2.0
WRAP.           NO      :   One line per depth step
~Well Information Section
#MNEM       .UNIT                                         VALUE :DESCRIPTION
#------------------------------------------------------------------------------
STRT        .FT                                           11964 :START DEPTH
STOP        .FT                                         16416.5 :STOP DEPTH
STEP        .FT                                             0.5 :STEP      
NULL        .                                           -999.25 :NULL      
COMP        .              ADVANCE ENERGY PARTNERS HAT MESA LLC :COMPANY   
WELL        .                                  DAGGER STATE SWD :WELL      
FLD         .                                               SWD :FIELD     
LOC         .                                                   :LOCATION  
CNTY        .                                               LEA :LOCATION  
STAT        .                                        NEW MEXICO :STATE     
CTRY        .                                     UNITED STATES :COUNTRY   
SRVC        .                                                   :SERVICE COMPANY
DATE        .                              1/27/2023 5:38:29 PM :LOG DATE  
API         .                                    30025458150000 :API NUMBER
UWI         .                                    30025458150000 :UNIQUE WELL ID
XCOORD      .                                  990031.214140587 :SURFACE X 
YCOORD      .                                  1027167.67164026 :SURFACE Y 
LAT         .                                        32.4498049 :LATITUDE  
LON         .                                      -103.6069526 :LONGITUDE 
ELEV        .FT                                            3803 :ELEVATION VALUE
ELEV_TYPE   .                                                KB :ELEVATION REFERENCE TYPE
~Curve Information Section
#MNEM       .UNIT                                      API CODE :CURVE DESCRIPTION
#------------------------------------------------------------------------------
DEPT        .FT                                                 :DEPTH     
AF90        .OHMM                                               :AF90      
AFCO90      .MM/M                                               :Array Induction Four Foot Conductivity A90 {F13.4}
AT90        .OHMM                                               :AT90      
ATCO90      .MM/M                                               :ATCO90    
ATRT        .OHMM                                               :ATRT      
CNTC        .HZ                                                 :CNTC      
ECGR        .GAPI                                               :ECGR      
EHGR        .GAPI                                               :EHGR      
GAMMA       .UNITLESS                                           :GAMMA     
GR          .GAPI                                               :GR        
GR_EDTC     .GAPI                                               :GR_EDTC   
HCGR        .GAPI                                               :HCGR      
HGR         .GAPI                                               :HGR       
HNPO        .CFCF                                               :HNPO      
HSGR        .GAPI                                               :HSGR      
ILD         .                                                   :ILD       
MCGR        .GAPI                                               :MCGR      
NPHI        .CFCF                                               :Nphi      
NPOR        .CFCF                                               :NPOR      
NPOR_LIM    .CFCF                                               :NPOR_LIM  
PE          .                                                   :PE        
PEF         .                                                   :PEF       
PEF8        .                                                   :PEF8      
PEFZ        .                                                   :PEFZ      
RHO8        .G/C3                                               :RHO8      
RHOB        .                                                   :RHOB      
RHOZ        .G/C3                                               :RHOZ      
TNPH        .CFCF                                               :TNPH      
TNPH_LIM    .CFCF                                               :TNPH_LIM  
~A        DEPTH           AF90         AFCO90           AT90         ATCO90           ATRT           CNTC           ECGR           EHGR          GAMMA             GR        GR_EDTC           HCGR            HGR           HNPO           HSGR            ILD           MCGR           NPHI           NPOR       NPOR_LIM             PE            PEF           PEF8           PEFZ           RHO8           RHOB           RHOZ           TNPH       TNPH_LIM
# ...
     14268.0000        -999.25        -999.25        -999.25        -999.25        -999.25        3928.84         55.919         54.253        -999.25         54.953         55.637         31.212         53.316          0.087         47.387        -999.25         28.893          0.103          0.088          0.088        -999.25        -999.25          5.118          4.945          2.732        2.70316          2.704          0.097          0.097
     14268.5000        -999.25        -999.25        -999.25        -999.25        -999.25       4556.223         47.762         43.189        -999.25         46.936         43.882         29.544         42.442          0.046         42.339        -999.25         27.436          0.052          0.045          0.045        -999.25        -999.25          5.113          4.963           2.73         2.7271          2.727          0.065          0.065
     14269.0000        -999.25        -999.25        -999.25        -999.25        -999.25       4776.713         47.405         45.866        -999.25         46.586         46.251         33.248         45.073          0.031         47.215        -999.25         30.971          0.029           0.03           0.03        -999.25        -999.25          4.802          4.738          2.755        2.73394          2.733          0.054          0.054
     14269.5000        -999.25        -999.25        -999.25        -999.25        -999.25        4478.28          58.44         53.183        -999.25          57.43         60.845         41.653         52.264          0.025         56.752        -999.25         38.969          0.037          0.027          0.027        -999.25        -999.25          4.212          4.476           2.74        2.72539          2.725          0.061          0.061
     14270.0000        -999.25        -999.25        -999.25        -999.25        -999.25       3886.167         78.258         75.907        -999.25         76.905         82.272         57.755         74.595           0.09          75.06        -999.25         54.314          0.101           0.09           0.09        -999.25        -999.25           4.29          4.275          2.701        2.70829          2.708          0.094          0.094
     14270.5000        -999.25        -999.25        -999.25        -999.25        -999.25       3192.518         99.316        105.296        -999.25         97.599        104.024         74.769        103.476          0.234          92.29        -999.25         70.663          0.186          0.226          0.226        -999.25        -999.25          4.299          4.179          2.652        2.67922          2.679          0.159          0.159
     14271.0000        -999.25        -999.25        -999.25        -999.25        -999.25       2497.593        110.247        116.359        -999.25        108.342        115.026         83.198        114.348          0.352        104.846        -999.25         78.815          0.261          0.308          0.308        -999.25        -999.25           4.09          4.152          2.646        2.65699          2.657          0.235          0.235
     14271.5000        -999.25        -999.25        -999.25        -999.25        -999.25       2097.498        110.723        108.626        -999.25        108.809        113.159         88.161        106.748          0.317        110.848        -999.25         83.687           0.29          0.313          0.313        -999.25        -999.25          4.047          4.112          2.633        2.62963          2.629          0.289          0.289
     14272.0000        -999.25        -999.25        -999.25        -999.25        -999.25         1952.4         108.82        106.723        -999.25        106.939        109.624         89.437        104.878          0.304        110.719        -999.25         85.068          0.293          0.312          0.312        -999.25        -999.25          4.164          4.067          2.598        2.60911          2.608          0.298          0.298
     14272.5000        -999.25        -999.25        -999.25        -999.25        -999.25       1878.594        109.697        110.649        -999.25        107.801         105.56         91.581        108.736          0.293        110.073        -999.25          87.31          0.307          0.282          0.282        -999.25        -999.25          3.968          3.991          2.598        2.58688          2.586          0.298          0.298
     14273.0000        -999.25        -999.25        -999.25        -999.25        -999.25       1833.429        113.609         111.72        -999.25        111.645        111.295         87.838        109.789          0.306        109.639        -999.25         83.707          0.325          0.311          0.311        -999.25        -999.25          3.575          3.945          2.553        2.56978          2.569          0.318          0.318
     14273.5000        -999.25        -999.25        -999.25        -999.25        -999.25       1816.339        118.011        118.501        -999.25        115.971        116.956         88.713        116.453          0.376        109.999        -999.25         84.565          0.355           0.37           0.37        -999.25        -999.25          4.118              4           2.56        2.57149          2.572           0.34           0.34
     14274.0000        -999.25        -999.25        -999.25        -999.25        -999.25       1793.166        118.011        123.855        -999.25        115.971        122.044         87.207        121.714          0.352        111.978        -999.25         82.987          0.363          0.364          0.364        -999.25        -999.25          4.188           4.07          2.584        2.58175          2.581          0.354          0.354
     14274.5000        -999.25        -999.25        -999.25        -999.25        -999.25       1791.218        113.772         111.72        -999.25        111.805        120.037         85.337        109.789          0.352        109.616        -999.25         81.078          0.361          0.348          0.348        -999.25        -999.25          4.315          4.099          2.596        2.58859          2.589          0.351          0.351
     14275.0000        -999.25        -999.25        -999.25        -999.25        -999.25       1822.981        111.393        106.365        -999.25        109.467        115.166         85.179        104.527          0.351        109.598        -999.25         80.758          0.362           0.35           0.35        -999.25        -999.25          3.992          4.044          2.581        2.58175          2.582          0.353          0.353
     14275.5000        -999.25        -999.25        -999.25        -999.25        -999.25       1924.232        110.678        116.717        -999.25        108.765        110.348         81.107          114.7          0.366         105.25        -999.25         76.715          0.381           0.36           0.36        -999.25        -999.25          3.961          4.075          2.567        2.56807          2.569          0.344          0.344
     14276.0000        -999.25        -999.25        -999.25        -999.25        -999.25        2314.01        105.771        109.577        -999.25        103.942         98.592         68.528        107.683          0.473         93.866        -999.25         64.481          0.342          0.424          0.424        -999.25        -999.25          4.083           4.24          2.554        2.57833          2.578          0.319          0.319
     14276.5000        -999.25        -999.25        -999.25        -999.25        -999.25       3006.555         81.031         91.018        -999.25          79.63         72.696         50.766         89.445          0.333         70.134        -999.25         47.511          0.235          0.319          0.319        -999.25        -999.25           4.32          4.695          2.644         2.6245          2.624          0.209          0.209
