#------------------------------------------------------------------------------
# Created by    : mgeorge
# Created on    : 07/19/2023 10:29:23
#------------------------------------------------------------------------------
~Version Information Section
VERS.           2.0     :   CWLS log ASCII Standard - VERSION 2.0
WRAP.           NO      :   One line per depth step
~Well Information Section
#MNEM       .UNIT                                         VALUE :DESCRIPTION
#------------------------------------------------------------------------------
STRT        .FT                                             166 :START DEPTH
STOP        .FT                                           14648 :STOP DEPTH
STEP        .FT                                             0.5 :STEP      
NULL        .                                           -999.25 :NULL      
COMP        .                     DEVON ENERGY PRODUCTION CO LP :COMPANY   
WELL        .                          RIO BLANCO 4 FEDERAL COM :WELL      
FLD         .                               BELL LAKE NORTHEAST :FIELD     
LOC         .                                                   :LOCATION  
CNTY        .                                               LEA :LOCATION  
STAT        .                                        NEW MEXICO :STATE     
CTRY        .                                     UNITED STATES :COUNTRY   
SRVC        .                                                   :SERVICE COMPANY
DATE        .                               8/4/2022 3:29:17 PM :LOG DATE  
API         .                                    30025364250000 :API NUMBER
UWI         .                                    30025364250000 :UNIQUE WELL ID
XCOORD      .                                  1030633.57202521 :SURFACE X 
YCOORD      .                                  982685.374946431 :SURFACE Y 
LAT         .                                        32.3308251 :LATITUDE  
LON         .                                      -103.4713531 :LONGITUDE 
ELEV        .FT                                            3422 :ELEVATION VALUE
ELEV_TYPE   .                                                KB :ELEVATION REFERENCE TYPE
~Curve Information Section
#MNEM       .UNIT                                      API CODE :CURVE DESCRIPTION
#------------------------------------------------------------------------------
DEPT        .FT                                                 :DEPTH     
AF90        .OHMM                                               :AF90      
ASF90       .OHMM                                               :ARRAY INDUCTION FOUR FOOT RESISTIVITY A90
DRESWS      .OHMM                                               :DEEP INDUCTION RESISTIVITY
GR          .GAPI                                               :GR        
GRR         .GAPI                                               :GRR       
GRS         .GAPI                                               :GRS       
GRWS        .GAPI                                               :GAMMA RAY FROM SONIC LOG
RLA5        .OHMM                                               :RLA5      
~A        DEPTH           AF90          ASF90         DRESWS             GR            GRR            GRS           GRWS           RLA5
# ...
     12172.5000        -999.25        -999.25        14.6408          41.25        68.7373        53.5434        55.8847        14.6408
     12173.0000        -999.25        -999.25        43.3396        39.2857        62.2937        47.7471        50.6452        43.3396
     12173.5000        -999.25        -999.25        23.6511        31.9643        54.8101        44.6542        46.2007        23.6511
     12174.0000        -999.25        -999.25        26.4075        25.8182         52.763         47.513        46.0836        26.4075
     12174.5000        -999.25        -999.25        14.5045        34.8214        58.0442        56.9119        52.2125        14.5045
     12175.0000        -999.25        -999.25         6.4612           52.5        69.3364        63.8598        60.3858         6.4612
     12175.5000        -999.25        -999.25         5.4289             65        81.3812        66.5859        65.2228         5.4289
     12176.0000        -999.25        -999.25         10.266        70.8621        86.5037        62.0364        64.3111         10.266
     12176.5000        -999.25        -999.25       966.2515        59.2857        77.8295        54.3359        58.1862       966.2515
     12177.0000        -999.25        -999.25        80.2205        41.6071        63.3597        45.7402         50.038        80.2205
     12177.5000        -999.25        -999.25        15.0254        29.6364        48.1176        43.0483        44.3942        15.0254
     12178.0000        -999.25        -999.25       330.1212        22.5455        43.6964        42.9055        42.9769       330.1212
     12178.5000        -999.25        -999.25       3639.427        20.9091        42.9219        41.9098        42.4077       3639.427
     12179.0000        -999.25        -999.25       520.2337        22.1818        42.9547        40.4598        41.1848       520.2337
     12179.5000        -999.25        -999.25        152.516        23.2727        45.1407        48.9158        44.6878        152.516
     12180.0000        -999.25        -999.25        35.5975        20.3636        55.1436         69.736        59.3259        35.5975
     12180.5000        -999.25        -999.25        14.4615        16.4286        82.4453        72.8319         71.284        14.4615
     12181.0000        -999.25        -999.25         11.151        14.2857        90.5594        66.5713        72.8319         11.151
     12181.5000        -999.25        -999.25        29.3202             20        81.3915        49.5388        66.5713        29.3202
     12182.0000        -999.25        -999.25       3800.986        26.3636        65.1464        38.3279        49.5388       3800.986
     12182.5000        -999.25        -999.25       92462.09        29.6364        48.2916        29.2443        38.3279       92462.09
     12183.0000        -999.25        -999.25       105554.6        28.5455        34.3968         24.911        29.2443       105554.6
     12183.5000        -999.25        -999.25       563.7277        26.7273        32.0766        26.1309         24.911       563.7277
     12184.0000        -999.25        -999.25       451.0628        25.8182        33.8921        28.3792        26.1309       451.0628
     12184.5000        -999.25        -999.25       619.4195             26        35.5935        26.2474        28.3792       619.4195
     12185.0000        -999.25        -999.25       150.0769        26.9091        35.8522        22.3753        26.2474       150.0769
     12185.5000        -999.25        -999.25       1049.095             26        32.0421        18.3263        22.3753       1049.095
     12186.0000        -999.25        -999.25       17859.13        26.7273        25.5991        17.6019        18.3263       17859.13
     12186.5000        -999.25        -999.25       156.9695        30.7143        24.0049          21.92        17.6019       156.9695
     12187.0000        -999.25        -999.25        55.8805        36.4286        31.3679        25.3472          21.92        55.8805
     12187.5000        -999.25        -999.25       287.8369        41.4286        36.2933        25.9349        25.3472       287.8369
     12188.0000        -999.25        -999.25        1383.47        46.4286        37.5201        25.5212        25.9349        1383.47
     12188.5000        -999.25        -999.25       457.7226        49.4643         33.916        24.1899        25.5212       457.7226
     12189.0000        -999.25        -999.25       597.8841          48.75        32.3952        24.1689        24.1899       597.8841
     12189.5000        -999.25        -999.25       218.4095        48.0357         34.855        25.5744        24.1689       218.4095
     12190.0000        -999.25        -999.25        99.6882        54.6429        39.0535        27.4736        25.5744        99.6882
     12190.5000        -999.25        -999.25        3328.75        60.8929        39.9415        29.3188        27.4736        3328.75
     12191.0000        -999.25        -999.25        10225.3        66.7857        38.6399        32.0666        29.3188        10225.3
     12191.5000        -999.25        -999.25       457.7333        72.4138        38.3299        35.3964        32.0666       457.7333
     12192.0000        -999.25        -999.25       235.6536        79.6552        42.3648         39.241        35.3964       235.6536
     12192.5000        -999.25        -999.25        312.586        83.5714        49.3422        42.6988         39.241        312.586
     12193.0000        -999.25        -999.25        63.3872        84.8214        53.4985        45.5763        42.6988        63.3872
     12193.5000        -999.25        -999.25       110.4345        81.7857        55.7883        50.3162        45.5763       110.4345
     12194.0000        -999.25        -999.25       315.7798        72.4138        58.2825        53.2486        50.3162       315.7798
     12194.5000        -999.25        -999.25       422.9166             60        62.1682        57.6862        53.2486       422.9166
     12195.0000        -999.25        -999.25        159.021        41.9643        70.4227        67.1103        57.6862        159.021
     12195.5000        -999.25        -999.25        19.6313             28        80.5205         74.482        67.1103        19.6313
     12196.0000        -999.25        -999.25          7.178        18.2143        93.6799        78.4283         74.482          7.178
     12196.5000        -999.25        -999.25         6.1096        15.1786        105.053        81.3218        78.4283         6.1096
     12197.0000        -999.25        -999.25         7.2031        17.1429       106.9291         84.046        81.3218         7.2031
     12197.5000        -999.25        -999.25          5.832        24.3636       104.2112        84.9756         84.046          5.832
     12198.0000        -999.25        -999.25         5.9543        31.6071       102.1059        84.6653        84.9756         5.9543
     12198.5000        -999.25        -999.25         4.4888        38.0357        99.9528        82.8491        84.6653         4.4888
     12199.0000        -999.25        -999.25         4.0147        42.3214        96.8765        78.6767        82.8491         4.0147
     12199.5000        -999.25        -999.25         4.5123           42.5        90.8476        68.9507        78.6767         4.5123
     12200.0000        -999.25        -999.25         6.0669        42.6786        77.8853        50.7487        68.9507         6.0669
     12200.5000        -999.25        -999.25        18.3073          43.75        62.3397        41.9857        50.7487        18.3073
     12201.0000        -999.25        -999.25       821.6494        47.3214        39.1897        23.7956        41.9857       821.6494
     12201.5000        -999.25        -999.25       9626.677        50.1786        24.5435        15.2146        23.7956       9626.677
