#------------------------------------------------------------------------------
# Created by    : mgeorge
# Created on    : 07/19/2023 10:29:23
#------------------------------------------------------------------------------
~Version Information Section
VERS.           2.0     :   CWLS log ASCII Standard - VERSION 2.0
WRAP.           NO      :   One line per depth step
~Well Information Section
#MNEM       .UNIT                                         VALUE :DESCRIPTION
#------------------------------------------------------------------------------
STRT        .FT                                             166 :START DEPTH
STOP        .FT                                           14648 :STOP DEPTH
STEP        .FT                                             0.5 :STEP      
NULL        .                                           -999.25 :NULL      
COMP        .                     DEVON ENERGY PRODUCTION CO LP :COMPANY   
WELL        .                          RIO BLANCO 4 FEDERAL COM :WELL      
FLD         .                               BELL LAKE NORTHEAST :FIELD     
LOC         .                                                   :LOCATION  
CNTY        .                                               LEA :LOCATION  
STAT        .                                        NEW MEXICO :STATE     
CTRY        .                                     UNITED STATES :COUNTRY   
SRVC        .                                                   :SERVICE COMPANY
DATE        .                               8/4/2022 3:29:17 PM :LOG DATE  
API         .                                    30025364250000 :API NUMBER
UWI         .                                    30025364250000 :UNIQUE WELL ID
XCOORD      .                                  1030633.57202521 :SURFACE X 
YCOORD      .                                  982685.374946431 :SURFACE Y 
LAT         .                                        32.3308251 :LATITUDE  
LON         .                                      -103.4713531 :LONGITUDE 
ELEV        .FT                                            3422 :ELEVATION VALUE
ELEV_TYPE   .                                                KB :ELEVATION REFERENCE TYPE
~Curve Information Section
#MNEM       .UNIT                                      API CODE :CURVE DESCRIPTION
#------------------------------------------------------------------------------
DEPT        .FT                                                 :DEPTH     
AF90        .OHMM                                               :AF90      
ASF90       .OHMM                                               :ARRAY INDUCTION FOUR FOOT RESISTIVITY A90
DRESWS      .OHMM                                               :DEEP INDUCTION RESISTIVITY
GR          .GAPI                                               :GR        
GRR         .GAPI                                               :GRR       
GRS         .GAPI                                               :GRS       
GRWS        .GAPI                                               :GAMMA RAY FROM SONIC LOG
RLA5        .OHMM                                               :RLA5      
~A        DEPTH           AF90          ASF90         DRESWS             GR            GRR            GRS           GRWS           RLA5
# ...
     13175.5000        -999.25        -999.25         5.2811          102.5       109.8131        87.8035        86.9538         5.2811
     13176.0000        -999.25        -999.25          5.457       100.7143       111.6204        91.9596        87.8035          5.457
     13176.5000        -999.25        -999.25         5.3196             90       116.2079        96.0003        91.9596         5.3196
     13177.0000        -999.25        -999.25         5.1491        92.3214       119.3215        97.3867        96.0003         5.1491
     13177.5000        -999.25        -999.25         5.0214           92.5       119.8115        97.7325        97.3867         5.0214
     13178.0000        -999.25        -999.25         4.9551        87.3214        118.902        98.0077        97.7325         4.9551
     13178.5000        -999.25        -999.25         5.1506        86.4286       120.4047        97.7097        98.0077         5.1506
     13179.0000        -999.25        -999.25         5.3347        91.9643       120.9309        96.8419        97.7097         5.3347
     13179.5000        -999.25        -999.25         5.4219       100.1786       118.1968        95.1018        96.8419         5.4219
     13180.0000        -999.25        -999.25         4.9188       103.2143       116.1662        96.1632        95.1018         4.9188
     13180.5000        -999.25        -999.25         4.7434       102.8571        114.175        98.0666        96.1632         4.7434
     13181.0000        -999.25        -999.25         5.3188       100.8929       110.1274        98.9697        98.0666         5.3188
     13181.5000        -999.25        -999.25         5.4682        95.8929       107.8588        96.5805        98.9697         5.4682
     13182.0000        -999.25        -999.25         5.2396        95.1786       109.5133        93.7177        96.5805         5.2396
     13182.5000        -999.25        -999.25          5.387        99.8214       115.4406        92.7786        93.7177          5.387
     13183.0000        -999.25        -999.25         4.7198       100.7143       119.6397        95.0035        92.7786         4.7198
     13183.5000        -999.25        -999.25          4.266       101.0714       121.2663        95.8385        95.0035          4.266
     13184.0000        -999.25        -999.25         4.5418       100.7143       116.0035        94.5245        95.8385         4.5418
     13184.5000        -999.25        -999.25         5.1465           92.5       114.5192        92.4018        94.5245         5.1465
     13185.0000        -999.25        -999.25          5.299        91.9643       116.3162        91.7947        92.4018          5.299
     13185.5000        -999.25        -999.25         4.7752          96.25       118.2298        91.9108        91.7947         4.7752
     13186.0000        -999.25        -999.25         4.6074        98.5714       119.3995        92.2349        91.9108         4.6074
     13186.5000        -999.25        -999.25         4.5662       100.1786       117.5746        94.2906        92.2349         4.5662
     13187.0000        -999.25        -999.25         4.8207       100.5357       117.3113        96.7821        94.2906         4.8207
     13187.5000        -999.25        -999.25         5.0499       100.5357       117.4585        98.9353        96.7821         5.0499
     13188.0000        -999.25        -999.25          4.906        94.1071       116.4193       100.8733        98.9353          4.906
     13188.5000        -999.25        -999.25         4.4125          93.75       115.1861       102.8113       100.8733         4.4125
     13189.0000        -999.25        -999.25         4.5364        98.2143       116.8406       107.4946       102.8113         4.5364
     13189.5000        -999.25        -999.25          4.785       100.5357       121.2395       112.7092       107.4946          4.785
     13190.0000        -999.25        -999.25         4.8615         111.25        127.593       115.1479       112.7092         4.8615
     13190.5000        -999.25        -999.25         4.5373       119.2857       130.7052       111.8456       115.1479         4.5373
     13191.0000        -999.25        -999.25          4.815            125       129.1836       110.0536       111.8456          4.815
     13191.5000        -999.25        -999.25         5.0096       123.0357       127.9795       111.2662       110.0536         5.0096
     13192.0000        -999.25        -999.25         4.4442       119.1071        130.031       114.3759       111.2662         4.4442
     13192.5000        -999.25        -999.25         4.3042       125.7143       136.4168       116.3679       114.3759         4.3042
     13193.0000        -999.25        -999.25         4.0739       134.2857       139.7807       116.9815       116.3679         4.0739
     13193.5000        -999.25        -999.25         4.5143       136.7857       138.8907       117.7079       116.9815         4.5143
     13194.0000        -999.25        -999.25        13.0719       129.8214       137.1584       119.9751       117.7079        13.0719
     13194.5000        -999.25        -999.25        54.7342       120.8929       142.1739       128.1612       119.9751        54.7342
     13195.0000        -999.25        -999.25        18.4871       107.6786       152.6366       137.1642       128.1612        18.4871
     13195.5000        -999.25        -999.25         5.7876       104.8214       166.0111       141.1132       137.1642         5.7876
     13196.0000        -999.25        -999.25         4.1222       103.3929       174.3942       131.4578       141.1132         4.1222
     13196.5000        -999.25        -999.25          3.955       103.5714        164.659       121.1779       131.4578          3.955
     13197.0000        -999.25        -999.25          4.563       108.5714       151.1488        111.473       121.1779          4.563
     13197.5000        -999.25        -999.25         5.2281       115.8929       141.7495       110.5141        111.473         5.2281
     13198.0000        -999.25        -999.25         5.0851       117.6786       134.3918       110.5496       110.5141         5.0851
     13198.5000        -999.25        -999.25          5.549       114.2598       126.7397       110.9509       110.5496          5.549
     13199.0000        -999.25        -999.25         6.3357       111.0034       123.0374       111.9467       110.9509         6.3357
     13199.5000        -999.25        -999.25         6.7825       113.8143       121.1197       114.1276       111.9467         6.7825
     13200.0000        -999.25        -999.25         5.8417       117.3406       120.6993       114.0587       114.1276         5.8417
     13200.5000        -999.25        -999.25         5.6984       123.3929       122.2975       113.8335       114.0587         5.6984
     13201.0000        -999.25        -999.25         5.3696       130.3571       130.0411        116.182       113.8335         5.3696
     13201.5000        -999.25        -999.25         5.0408       136.9643       144.7687       120.8244        116.182         5.0408
     13202.0000        -999.25        -999.25          5.114       140.1754       158.9117       124.4063       120.8244          5.114
     13202.5000        -999.25        -999.25         9.4103       134.2857       165.2943       127.9535       124.4063         9.4103
     13203.0000        -999.25        -999.25          11.83       125.5357       166.4646       131.1446       127.9535          11.83
     13203.5000        -999.25        -999.25        11.5559          122.5       160.9844       134.1454       131.1446        11.5559
     13204.0000        -999.25        -999.25         8.0985       122.6786       153.4743       131.1541       134.1454         8.0985
     13204.5000        -999.25        -999.25         5.2321       123.5714       148.1415       119.8313       131.1541         5.2321
