#------------------------------------------------------------------------------
# Created by    : mgeorge
# Created on    : 07/19/2023 10:29:21
#------------------------------------------------------------------------------
~Version Information Section
VERS.           2.0     :   CWLS log ASCII Standard - VERSION 2.0
WRAP.           NO      :   One line per depth step
~Well Information Section
#MNEM       .UNIT                                         VALUE :DESCRIPTION
#------------------------------------------------------------------------------
STRT        .FT                                             170 :START DEPTH
STOP        .FT                                            8880 :STOP DEPTH
STEP        .FT                                             0.5 :STEP      
NULL        .                                           -999.25 :NULL      
COMP        .                                       OXY USA INC :COMPANY   
WELL        .                             COVINGTON `A` FEDERAL :WELL      
FLD         .                                     RED TANK WEST :FIELD     
LOC         .                                                   :LOCATION  
CNTY        .                                               LEA :LOCATION  
STAT        .                                        NEW MEXICO :STATE     
CTRY        .                                     UNITED STATES :COUNTRY   
SRVC        .                                                   :SERVICE COMPANY
DATE        .                              8/3/2022 10:24:51 AM :LOG DATE  
API         .                                    30025349870000 :API NUMBER
UWI         .                                    30025349870000 :UNIQUE WELL ID
XCOORD      .                                  979541.866465641 :SURFACE X 
YCOORD      .                                  991455.566234473 :SURFACE Y 
LAT         .                                        32.3508526 :LATITUDE  
LON         .                                      -103.6374947 :LONGITUDE 
ELEV        .FT                                            3773 :ELEVATION VALUE
ELEV_TYPE   .                                                KB :ELEVATION REFERENCE TYPE
~Curve Information Section
#MNEM       .UNIT                                      API CODE :CURVE DESCRIPTION
#------------------------------------------------------------------------------
DEPT        .FT                                                 :DEPTH     
AF90        .OHMM                                               :AF90      
GR          .GAPI                                               :GR        
ILD         .                                                   :ILD       
NPHI        .                                                   :Nphi      
PE          .                                                   :PE        
PEFZ        .BE                                                 :PEFZ      
RHOB        .                                                   :RHOB      
RHOZ        .G/C3                                               :RHOZ      
TNPH        .V/V                                                :TNPH      
~A        DEPTH           AF90             GR            ILD           NPHI             PE           PEFZ           RHOB           RHOZ           TNPH
# ...
      7192.5000         5.8559       122.2735         5.8559         0.2356         2.9088         2.9088         2.5055         2.5055         0.2356
      7193.0000         4.7287       107.1622         4.7287          0.222         2.8566         2.8566         2.4751         2.4751          0.222
      7193.5000         3.9033        84.0439         3.9033         0.1887         2.8044         2.8044         2.4324         2.4324         0.1887
      7194.0000         3.7856        66.1333         3.7856         0.1415          2.739          2.739         2.4176         2.4176         0.1415
      7194.5000         4.2034        45.6757         4.2034          0.093         2.7127         2.7127         2.4586         2.4586          0.093
      7195.0000         4.6416        40.4054         4.6416         0.0433         2.7648         2.7648          2.499          2.499         0.0433
      7195.5000          5.123        35.8185          5.123         0.0294         2.8954         2.8954         2.5404         2.5404         0.0294
      7196.0000         5.6462        33.9932         5.6462         0.0267         3.0276         3.0276         2.5812         2.5812         0.0267
      7196.5000         6.0371        34.9104         6.0371         0.0339         3.1239         3.1239         2.6229         2.6229         0.0339
      7197.0000         6.0371        36.6093         6.0371         0.0411         2.9869         2.9869         2.6202         2.6202         0.0411
      7197.5000          6.112        38.6967          6.112         0.0492          2.764          2.764          2.602          2.602         0.0492
      7198.0000         6.0371        39.7395         6.0371         0.0566         2.6458         2.6458          2.584          2.584         0.0566
      7198.5000         5.5442        39.8698         5.5442         0.0616         2.6193         2.6193         2.5659         2.5659         0.0616
      7199.0000         5.0611        39.6098         5.0611         0.0664         2.6059         2.6059         2.5419         2.5419         0.0664
      7199.5000         4.6416        38.7001         4.6416         0.0709         2.6056         2.6056          2.524          2.524         0.0709
      7200.0000         4.2295        37.6617         4.2295         0.0792         2.6185         2.6185          2.506          2.506         0.0792
      7200.5000         3.8558        37.5349         3.8558         0.0856         2.5921         2.5921          2.488          2.488         0.0856
      7201.0000         3.4961        37.8002         3.4961         0.0923         2.5789         2.5789          2.476          2.476         0.0923
      7201.5000         3.1894        38.7156         3.1894         0.0941         2.5526         2.5526          2.476          2.476         0.0941
      7202.0000         2.8737        39.3727         2.8737         0.0901         2.5263         2.5263         2.4787         2.4787         0.0901
      7202.5000         2.6369        39.2481         2.6369         0.0864         2.5132         2.5132          2.488          2.488         0.0864
      7203.0000         2.5104        38.6028         2.5104         0.0891         2.5132         2.5132          2.484          2.484         0.0891
      7203.5000         2.4196         37.956         2.4196         0.0944         2.5395         2.5395          2.472          2.472         0.0944
      7204.0000          2.332        38.2219          2.332         0.1005         2.5789         2.5789           2.46           2.46         0.1005
      7204.5000         2.2339        39.2725         2.2339          0.106         2.5263         2.5263          2.448          2.448          0.106
      7205.0000          2.153        40.3325          2.153         0.1063         2.4211         2.4211         2.4459         2.4459         0.1063
      7205.5000         2.0624        40.3395         2.0624         0.1058         2.3553         2.3553         2.4439         2.4439         0.1058
      7206.0000         1.9877        40.4797         1.9877         0.1044         2.3026         2.3026         2.4432         2.4432         0.1044
      7206.5000         1.9271        41.0225         1.9271         0.1036         2.2632         2.2632         2.4466         2.4466         0.1036
      7207.0000         1.9034        41.6978         1.9034         0.1027         2.2368         2.2368         2.4527         2.4527         0.1027
      7207.5000         1.9034        41.5692         1.9034         0.1033         2.2105         2.2105          2.458          2.458         0.1033
      7208.0000         1.9034        39.5773         1.9034         0.1038         2.2237         2.2237           2.46           2.46         0.1038
      7208.5000         1.9271        38.0079         1.9271         0.1047         2.2632         2.2632         2.4593         2.4593         0.1047
      7209.0000         1.9754        36.5685         1.9754         0.1033         2.3289         2.3289         2.4547         2.4547         0.1033
      7209.5000         2.0247        37.0984         2.0247         0.1014         2.4079         2.4079          2.454          2.454         0.1014
      7210.0000         2.0751         37.498         2.0751         0.0992         2.4474         2.4474          2.456          2.456         0.0992
      7210.5000         2.1137        37.6316         2.1137         0.0995         2.4607         2.4607          2.458          2.458         0.0995
      7211.0000         2.1267        37.6316         2.1267         0.1014         2.4348         2.4348           2.46           2.46         0.1014
      7211.5000         2.1398        37.6316         2.1398          0.103         2.4089         2.4089         2.4627         2.4627          0.103
      7212.0000          2.153        37.6316          2.153         0.1047         2.4355         2.4355         2.4627         2.4627         0.1047
      7212.5000         2.1663           37.5         2.1663         0.1038         2.4753         2.4753         2.4567         2.4567         0.1038
      7213.0000         2.1931           37.5         2.1931         0.1011          2.528          2.528         2.4613         2.4613         0.1011
      7213.5000         2.2202        37.7632         2.2202         0.0981         2.5022         2.5022         2.4753         2.4753         0.0981
      7214.0000         2.2339        39.2105         2.2339          0.096          2.437          2.437         2.4807         2.4807          0.096
      7214.5000         2.3464        40.9333         2.3464         0.0933         2.3458         2.3458          2.478          2.478         0.0933
      7215.0000         2.4495        43.3333         2.4495         0.0896         2.3462         2.3462          2.474          2.474         0.0896
      7215.5000         2.6695        44.9333         2.6695         0.0848         2.3597         2.3597           2.47           2.47         0.0848
      7216.0000         3.1313        43.0667         3.1313         0.0792         2.3862         2.3862         2.4693         2.4693         0.0792
      7216.5000         3.7625        41.3333         3.7625         0.0736         2.3997         2.3997         2.4733         2.4733         0.0736
      7217.0000          4.417        39.3421          4.417         0.0688         2.4262         2.4262          2.486          2.486         0.0688
      7217.5000         5.2811           37.5         5.2811         0.0632         2.4787         2.4787         2.4987         2.4987         0.0632
      7218.0000         5.8559        38.0263         5.8559         0.0605         2.5572         2.5572         2.5153         2.5153         0.0605
      7218.5000         6.3816        38.4211         6.3816         0.0605         2.6225         2.6225          2.526          2.526         0.0605
