#------------------------------------------------------------------------------
# Created by    : mgeorge
# Created on    : 07/19/2023 10:29:23
#------------------------------------------------------------------------------
~Version Information Section
VERS.           2.0     :   CWLS log ASCII Standard - VERSION 2.0
WRAP.           NO      :   One line per depth step
~Well Information Section
#MNEM       .UNIT                                         VALUE :DESCRIPTION
#------------------------------------------------------------------------------
STRT        .FT                                             166 :START DEPTH
STOP        .FT                                           14648 :STOP DEPTH
STEP        .FT                                             0.5 :STEP      
NULL        .                                           -999.25 :NULL      
COMP        .                     DEVON ENERGY PRODUCTION CO LP :COMPANY   
WELL        .                          RIO BLANCO 4 FEDERAL COM :WELL      
FLD         .                               BELL LAKE NORTHEAST :FIELD     
LOC         .                                                   :LOCATION  
CNTY        .                                               LEA :LOCATION  
STAT        .                                        NEW MEXICO :STATE     
CTRY        .                                     UNITED STATES :COUNTRY   
SRVC        .                                                   :SERVICE COMPANY
DATE        .                               8/4/2022 3:29:17 PM :LOG DATE  
API         .                                    30025364250000 :API NUMBER
UWI         .                                    30025364250000 :UNIQUE WELL ID
XCOORD      .                                  1030633.57202521 :SURFACE X 
YCOORD      .                                  982685.374946431 :SURFACE Y 
LAT         .                                        32.3308251 :LATITUDE  
LON         .                                      -103.4713531 :LONGITUDE 
ELEV        .FT                                            3422 :ELEVATION VALUE
ELEV_TYPE   .                                                KB :ELEVATION REFERENCE TYPE
~Curve Information Section
#MNEM       .UNIT                                      API CODE :CURVE DESCRIPTION
#------------------------------------------------------------------------------
DEPT        .FT                                                 :DEPTH     
AF90        .OHMM                                               :AF90      
ASF90       .OHMM                                               :ARRAY INDUCTION FOUR FOOT RESISTIVITY A90
DRESWS      .OHMM                                               :DEEP INDUCTION RESISTIVITY
GR          .GAPI                                               :GR        
GRR         .GAPI                                               :GRR       
GRS         .GAPI                                               :GRS       
GRWS        .GAPI                                               :GAMMA RAY FROM SONIC LOG
RLA5        .OHMM                                               :RLA5      
~A        DEPTH           AF90          ASF90         DRESWS             GR            GRR            GRS           GRWS           RLA5
# ...
     13382.0000        -999.25        -999.25        11.0228        72.4561       111.6965        82.1398        82.1398        11.0228
     13382.5000        -999.25        -999.25        10.1472        68.5714       101.9707        75.9249        75.9249        10.1472
     13383.0000        -999.25        -999.25        12.1508          63.75        89.7028        69.2564        69.2564        12.1508
     13383.5000        -999.25        -999.25         10.602        63.9286        82.9298        64.3672        64.3672         10.602
     13384.0000        -999.25        -999.25        11.0923        67.3214        81.2801        62.4986        62.4986        11.0923
     13384.5000        -999.25        -999.25         15.482        70.5263        85.0805        62.2315        62.2315         15.482
     13385.0000        -999.25        -999.25        12.4369        73.8596         86.255        64.2306        64.2306        12.4369
     13385.5000        -999.25        -999.25        10.7775        78.0702        86.1283        65.9054        65.9054        10.7775
     13386.0000        -999.25        -999.25         9.8042        82.8571        86.5058        69.3142        69.3142         9.8042
     13386.5000        -999.25        -999.25         9.1392         75.614         87.717        70.9023        70.9023         9.1392
     13387.0000        -999.25        -999.25         8.9863        71.5789        89.2363        71.5123        71.5123         8.9863
     13387.5000        -999.25        -999.25         9.3137        74.0351        92.8278        73.1587        73.1587         9.3137
     13388.0000        -999.25        -999.25         9.7548        79.2982        93.2019        74.1214        74.1214         9.7548
     13388.5000        -999.25        -999.25        10.1646        82.3214        91.2715        75.0133        75.0133        10.1646
     13389.0000        -999.25        -999.25         9.8452        79.6491        89.7164         75.299         75.299         9.8452
     13389.5000        -999.25        -999.25         9.4172        76.3158        93.7467        76.8147        76.8147         9.4172
     13390.0000        -999.25        -999.25         8.8737        73.6842        96.8834        78.4508        78.4508         8.8737
     13390.5000        -999.25        -999.25         8.2716        73.5088        98.4497        78.3746        78.3746         8.2716
     13391.0000        -999.25        -999.25         8.6963        75.7895        99.3958        75.1533        75.1533         8.6963
     13391.5000        -999.25        -999.25          9.377        80.5357         100.58        73.6316        73.6316          9.377
     13392.0000        -999.25        -999.25         9.1046        79.8246       101.4014         74.432         74.432         9.1046
     13392.5000        -999.25        -999.25         8.7408        73.8596        99.9487        76.0772        76.0772         8.7408
     13393.0000        -999.25        -999.25          9.009        69.1071        99.3287        76.9685        76.9685          9.009
     13393.5000        -999.25        -999.25        11.5426        64.4643        98.4974         76.108         76.108        11.5426
     13394.0000        -999.25        -999.25        14.7199             70        97.0216        73.9774        73.9774        14.7199
     13394.5000        -999.25        -999.25        13.3865         74.386        93.8123        72.7001        72.7001        13.3865
     13395.0000        -999.25        -999.25        10.3474         77.193        87.8485        72.9419        72.9419        10.3474
     13395.5000        -999.25        -999.25        10.1136        72.1053        90.6444        75.5945        75.5945        10.1136
     13396.0000        -999.25        -999.25        12.1036          68.75        94.0704        77.7777        77.7777        12.1036
     13396.5000        -999.25        -999.25        15.2321        67.8571        94.9836        76.7238        76.7238        15.2321
     13397.0000        -999.25        -999.25        13.7129        69.8214        89.3584        73.6086        73.6086        13.7129
     13397.5000        -999.25        -999.25         17.541        71.7544         84.919        70.0733        70.0733         17.541
     13398.0000        -999.25        -999.25        16.3306        67.1429        83.8975        69.4912        69.4912        16.3306
     13398.5000        -999.25        -999.25        14.8067        62.7009        83.1779        69.1578        69.1578        14.8067
     13399.0000        -999.25        -999.25        13.4615        66.6741        81.8569        68.4027        68.4027        13.4615
     13399.5000        -999.25        -999.25        18.9392        76.8776        78.9541        65.7362        65.7362        18.9392
     13400.0000        -999.25        -999.25        26.6423        77.0641        77.0769          63.79          63.79        26.6423
     13400.5000        -999.25        -999.25        15.9306        73.6207        82.7078        64.2646        64.2646        15.9306
     13401.0000        -999.25        -999.25        12.3032        71.8966        85.3703        69.2567        69.2567        12.3032
     13401.5000        -999.25        -999.25        10.4595        69.6429        89.0503        72.2938        72.2938        10.4595
     13402.0000        -999.25        -999.25        11.6373          68.75        89.3176        71.7735        71.7735        11.6373
     13402.5000        -999.25        -999.25        14.4199        69.4643        88.5636         67.477         67.477        14.4199
     13403.0000        -999.25        -999.25        11.6838        72.5862        86.5566          65.52          65.52        11.6838
     13403.5000        -999.25        -999.25        10.8874        75.1724        84.2003        65.6424        65.6424        10.8874
     13404.0000        -999.25        -999.25        12.6265        74.6552        86.3589        68.6564        68.6564        12.6265
     13404.5000        -999.25        -999.25        13.7076        74.3103        88.2337        72.3024        72.3024        13.7076
     13405.0000        -999.25        -999.25        10.7529        75.1724        87.8603        75.0263        75.0263        10.7529
     13405.5000        -999.25        -999.25        11.8493        75.1724        85.6974        75.3588        75.3588        11.8493
     13406.0000        -999.25        -999.25        14.6418        74.8276         82.087        72.9949        72.9949        14.6418
     13406.5000        -999.25        -999.25        13.5389        72.5862        83.4388        69.5795        69.5795        13.5389
     13407.0000        -999.25        -999.25        14.0406        71.3793        83.2869        66.3726        66.3726        14.0406
     13407.5000        -999.25        -999.25        15.6551        70.5172        83.1736        65.3937        65.3937        15.6551
     13408.0000        -999.25        -999.25         13.423        70.1724        81.7959        65.6723        65.6723         13.423
     13408.5000        -999.25        -999.25         10.736        69.6429        81.3278        66.8957        66.8957         10.736
     13409.0000        -999.25        -999.25         9.8183        68.5714        81.7771        68.4427        68.4427         9.8183
     13409.5000        -999.25        -999.25        13.5036        68.2143        82.0764        69.3681        69.3681        13.5036
     13410.0000        -999.25        -999.25         15.784        71.0345        83.0309        70.1335        70.1335         15.784
     13410.5000        -999.25        -999.25        11.2041        74.8276        84.3577        71.4005        71.4005        11.2041
     13411.0000        -999.25        -999.25        10.4058        78.7931        85.0794        74.3444        74.3444        10.4058
