#------------------------------------------------------------------------------
# Created by    : mgeorge
# Created on    : 07/19/2023 10:29:21
#------------------------------------------------------------------------------
~Version Information Section
VERS.           2.0     :   CWLS log ASCII Standard - VERSION 2.0
WRAP.           NO      :   One line per depth step
~Well Information Section
#MNEM       .UNIT                                         VALUE :DESCRIPTION
#------------------------------------------------------------------------------
STRT        .FT                                             170 :START DEPTH
STOP        .FT                                            8880 :STOP DEPTH
STEP        .FT                                             0.5 :STEP      
NULL        .                                           -999.25 :NULL      
COMP        .                                       OXY USA INC :COMPANY   
WELL        .                             COVINGTON `A` FEDERAL :WELL      
FLD         .                                     RED TANK WEST :FIELD     
LOC         .                                                   :LOCATION  
CNTY        .                                               LEA :LOCATION  
STAT        .                                        NEW MEXICO :STATE     
CTRY        .                                     UNITED STATES :COUNTRY   
SRVC        .                                                   :SERVICE COMPANY
DATE        .                              8/3/2022 10:24:51 AM :LOG DATE  
API         .                                    30025349870000 :API NUMBER
UWI         .                                    30025349870000 :UNIQUE WELL ID
XCOORD      .                                  979541.866465641 :SURFACE X 
YCOORD      .                                  991455.566234473 :SURFACE Y 
LAT         .                                        32.3508526 :LATITUDE  
LON         .                                      -103.6374947 :LONGITUDE 
ELEV        .FT                                            3773 :ELEVATION VALUE
ELEV_TYPE   .                                                KB :ELEVATION REFERENCE TYPE
~Curve Information Section
#MNEM       .UNIT                                      API CODE :CURVE DESCRIPTION
#------------------------------------------------------------------------------
DEPT        .FT                                                 :DEPTH     
AF90        .OHMM                                               :AF90      
GR          .GAPI                                               :GR        
ILD         .                                                   :ILD       
NPHI        .                                                   :Nphi      
PE          .                                                   :PE        
PEFZ        .BE                                                 :PEFZ      
RHOB        .                                                   :RHOB      
RHOZ        .G/C3                                               :RHOZ      
TNPH        .V/V                                                :TNPH      
~A        DEPTH           AF90             GR            ILD           NPHI             PE           PEFZ           RHOB           RHOZ           TNPH
# ...
      7722.5000        10.0615        83.4667        10.0615         0.1247         2.5802         2.5802         2.5367         2.5367         0.1247
      7723.0000         8.4067        77.5767         8.4067         0.1192         2.5412         2.5412         2.5293         2.5293         0.1192
      7723.5000         7.0426         73.946         7.0426          0.117         2.5021         2.5021         2.5213         2.5213          0.117
      7724.0000         6.0371        70.7229         6.0371         0.1134         2.5025         2.5025         2.5133         2.5133         0.1134
      7724.5000          5.612        65.6323          5.612         0.1044          2.542          2.542         2.5107         2.5107         0.1044
      7725.0000         5.7153        60.8051         5.7153         0.0939         2.5554         2.5554         2.5313         2.5313         0.0939
      7725.5000         5.9275        55.3333         5.9275         0.0819         2.5688         2.5688         2.5587         2.5587         0.0819
      7726.0000         6.1498        50.5333         6.1498         0.0715         2.5952         2.5952         2.5793         2.5793         0.0715
      7726.5000         6.3816        46.6667         6.3816         0.0611         2.6085         2.6085         2.6007         2.6007         0.0611
      7727.0000          6.541        47.4667          6.541           0.06         2.6479         2.6479         2.5987         2.5987           0.06
      7727.5000         6.5008             52         6.5008         0.0605         2.7002         2.7002          2.588          2.588         0.0605
      7728.0000          6.112        56.2667          6.112         0.0728         2.6483         2.6483         2.5773         2.5773         0.0728
      7728.5000         5.7852        62.0223         5.7852         0.0901         2.5444         2.5444         2.5667         2.5667         0.0901
      7729.0000         5.4111        64.5871         5.4111         0.1077         2.4407         2.4407         2.5513         2.5513         0.1077
      7729.5000          5.123          66.21          5.123         0.1231           2.35           2.35          2.538          2.538         0.1231
      7730.0000         4.8175         69.592         4.8175         0.1244         2.2985         2.2985         2.5247         2.5247         0.1244
      7730.5000         4.5561        74.6667         4.5561          0.126         2.2987         2.2987         2.5153         2.5153          0.126
      7731.0000         4.6995        79.7333         4.6995         0.1275         2.3377         2.3377         2.5153         2.5153         0.1275
      7731.5000         4.8776             80         4.8776         0.1291         2.3766         2.3766         2.5173         2.5173         0.1291
      7732.0000          5.092           72.8          5.092         0.1306         2.4156         2.4156         2.5407         2.5407         0.1306
      7732.5000         5.3133        67.1622         5.3133         0.1306         2.4026         2.4026          2.532          2.532         0.1306
      7733.0000         5.5106        67.5676         5.5106         0.1296         2.3896         2.3896         2.5227         2.5227         0.1296
      7733.5000         5.7501        69.5946         5.7501         0.1281         2.3766         2.3766         2.5107         2.5107         0.1281
      7734.0000          6.112        71.3333          6.112          0.127         2.4286         2.4286         2.5127         2.5127          0.127
      7734.5000         6.6631        72.1333         6.6631         0.1265         2.4935         2.4935         2.5213         2.5213         0.1265
      7735.0000         7.2596             74         7.2596         0.1262         2.5065         2.5065         2.5327         2.5327         0.1262
      7735.5000         7.8556        77.8667         7.8556         0.1247         2.4805         2.4805           2.54           2.54         0.1247
      7736.0000         8.5646        81.8667         8.5646          0.121         2.5065         2.5065         2.5453         2.5453          0.121
      7736.5000          9.341        85.8667          9.341         0.1249         2.5325         2.5325         2.5467         2.5467         0.1249
      7737.0000        10.1857        89.8667        10.1857         0.1304         2.5584         2.5584          2.546          2.546         0.1304
      7737.5000        10.7639        93.9726        10.7639         0.1356         2.5844         2.5844         2.5473         2.5473         0.1356
      7738.0000        10.2484        96.7123        10.2484         0.1397         2.6104         2.6104         2.5473         2.5473         0.1397
      7738.5000         9.8158        90.6849         9.8158         0.1379         2.6234         2.6234         2.5467         2.5467         0.1379
      7739.0000         9.7551        83.8667         9.7551         0.1343         2.5974         2.5974         2.5407         2.5407         0.1343
      7739.5000        12.4711        80.5333        12.4711         0.1306         2.5195         2.5195         2.5293         2.5293         0.1306
      7740.0000        16.0371        99.8677        16.0371         0.1283         2.4935         2.4935         2.5107         2.5107         0.1283
      7740.5000        20.4976       101.4903        20.4976         0.1427         2.5584         2.5584         2.4953         2.4953         0.1427
      7741.0000        26.3689       113.3853        26.3689         0.1635         2.6234         2.6234         2.4847         2.4847         0.1635
      7741.5000        32.7451       125.2703        32.7451         0.1869         2.7143         2.7143          2.496          2.496         0.1869
      7742.0000        41.0041       125.6757        41.0041         0.2016         2.8571         2.8571         2.5127         2.5127         0.2016
      7742.5000        41.0041       119.4611        41.0041         0.1795         2.8312         2.8312         2.5287         2.5287         0.1795
      7743.0000        38.5269       114.7496        38.5269           0.16         2.8052         2.8052         2.5453         2.5453           0.16
      7743.5000        33.1572       115.5603        33.1572         0.1629         2.7922         2.7922          2.562          2.562         0.1629
      7744.0000        28.0397       114.2187        28.0397         0.1675         2.8442         2.8442          2.578          2.578         0.1675
      7744.5000        24.1958       109.7874        24.1958         0.1696         2.8961         2.8961          2.584          2.584         0.1696
      7745.0000         20.751       105.3345         20.751          0.153         2.8312         2.8312           2.58           2.58          0.153
      7745.5000        17.5827       100.0718        17.5827         0.1335         2.7403         2.7403          2.572          2.572         0.1335
      7746.0000        15.1758       100.0784        15.1758         0.1247         2.6364         2.6364         2.5653         2.5653         0.1247
      7746.5000        14.8079        94.2466        14.8079         0.1203         2.5325         2.5325         2.5587         2.5587         0.1203
      7747.0000        15.3631        89.7333        15.3631         0.1156         2.5325         2.5325         2.5587         2.5587         0.1156
      7747.5000        17.7998        82.6667        17.7998         0.1052         2.6104         2.6104         2.5587         2.5587         0.1052
      7748.0000        20.4976        69.1976        20.4976         0.0872         2.7273         2.7273         2.5587         2.5587         0.0872
      7748.5000        23.7539        57.4434        23.7539         0.0736         2.8182         2.8182         2.5893         2.5893         0.0736
