#------------------------------------------------------------------------------
# Created by    : mgeorge
# Created on    : 07/19/2023 10:29:21
#------------------------------------------------------------------------------
~Version Information Section
VERS.           2.0     :   CWLS log ASCII Standard - VERSION 2.0
WRAP.           NO      :   One line per depth step
~Well Information Section
#MNEM       .UNIT                                         VALUE :DESCRIPTION
#------------------------------------------------------------------------------
STRT        .FT                                             170 :START DEPTH
STOP        .FT                                            8880 :STOP DEPTH
STEP        .FT                                             0.5 :STEP      
NULL        .                                           -999.25 :NULL      
COMP        .                                       OXY USA INC :COMPANY   
WELL        .                             COVINGTON `A` FEDERAL :WELL      
FLD         .                                     RED TANK WEST :FIELD     
LOC         .                                                   :LOCATION  
CNTY        .                                               LEA :LOCATION  
STAT        .                                        NEW MEXICO :STATE     
CTRY        .                                     UNITED STATES :COUNTRY   
SRVC        .                                                   :SERVICE COMPANY
DATE        .                              8/3/2022 10:24:51 AM :LOG DATE  
API         .                                    30025349870000 :API NUMBER
UWI         .                                    30025349870000 :UNIQUE WELL ID
XCOORD      .                                  979541.866465641 :SURFACE X 
YCOORD      .                                  991455.566234473 :SURFACE Y 
LAT         .                                        32.3508526 :LATITUDE  
LON         .                                      -103.6374947 :LONGITUDE 
ELEV        .FT                                            3773 :ELEVATION VALUE
ELEV_TYPE   .                                                KB :ELEVATION REFERENCE TYPE
~Curve Information Section
#MNEM       .UNIT                                      API CODE :CURVE DESCRIPTION
#------------------------------------------------------------------------------
DEPT        .FT                                                 :DEPTH     
AF90        .OHMM                                               :AF90      
GR          .GAPI                                               :GR        
ILD         .                                                   :ILD       
NPHI        .                                                   :Nphi      
PE          .                                                   :PE        
PEFZ        .BE                                                 :PEFZ      
RHOB        .                                                   :RHOB      
RHOZ        .G/C3                                               :RHOZ      
TNPH        .V/V                                                :TNPH      
~A        DEPTH           AF90             GR            ILD           NPHI             PE           PEFZ           RHOB           RHOZ           TNPH
# ...
      4966.5000         7.7139       105.6059         7.7139         0.1595         2.9324         2.9324         2.5507         2.5507         0.1595
      4967.0000         8.0998       103.2835         8.0998         0.1586          2.973          2.973          2.552          2.552         0.1586
      4967.5000         7.5289       100.5522         7.5289         0.1559              3              3          2.552          2.552         0.1559
      4968.0000         6.5814        95.5573         6.5814         0.1505         2.9865         2.9865         2.5507         2.5507         0.1505
      4968.5000         5.6344        92.3232         5.6344         0.1454         2.8919         2.8919          2.548          2.548         0.1454
      4969.0000         4.9384        88.5697         4.9384         0.1397         2.8243         2.8243         2.5447         2.5447         0.1397
      4969.5000         4.2558         84.031         4.2558         0.1457         2.7568         2.7568         2.5387         2.5387         0.1457
      4970.0000         3.7167        78.3665         3.7167         0.1524         2.6622         2.6622          2.528          2.528         0.1524
      4970.5000         3.3087         76.715         3.3087         0.1584         2.5407         2.5407         2.5153         2.5153         0.1584
      4971.0000         2.8914        75.6257         2.8914         0.1651          2.568          2.568         2.4993         2.4993         0.1651
      4971.5000         2.6859        73.5838         2.6859         0.1717         2.6088         2.6088         2.4773         2.4773         0.1717
      4972.0000         2.5415        69.7802         2.5415         0.1803          2.663          2.663         2.4613         2.4613         0.1803
      4972.5000         2.4048        66.1946         2.4048         0.1877         2.6632         2.6632         2.4453         2.4453         0.1877
      4973.0000         2.2754        63.8072         2.2754         0.1944         2.6096         2.6096         2.4227         2.4227         0.1944
      4973.5000          2.153        62.4883          2.153         0.2003          2.556          2.556         2.4047         2.4047         0.2003
      4974.0000         2.0498        62.6342         2.0498         0.2056         2.4756         2.4756         2.3892         2.3892         0.2056
      4974.5000         1.9401        63.8468         1.9401         0.2125         2.3954         2.3954         2.3581         2.3581         0.2125
      4975.0000         1.8593        65.5946         1.8593         0.2171         2.3958         2.3958         2.3709         2.3709         0.2171
      4975.5000         1.7818        66.9405         1.7818         0.2184         2.4365         2.4365         2.3818         2.3818         0.2184
      4976.0000         1.7284         68.955         1.7284         0.2189         2.4636         2.4636         2.3791         2.3791         0.2189
      4976.5000         1.6869        70.4386         1.6869         0.2187         2.4908         2.4908         2.3764         2.3764         0.2187
      4977.0000         1.6869        71.5266         1.6869         0.2205         2.5045         2.5045         2.3736         2.3736         0.2205
      4977.5000         1.6464        71.6733         1.6464         0.2264         2.4781         2.4781         2.3703         2.3703         0.2264
      4978.0000         1.6364        69.6739         1.6364         0.2269         2.5052         2.5052         2.3622         2.3622         0.2269
      4978.5000         1.6364        67.4216         1.6364         0.2267         2.5189         2.5189         2.3561         2.3561         0.2267
      4979.0000         1.5971        66.6342         1.5971         0.2251         2.5459         2.5459         2.3534         2.3534         0.2251
      4979.5000         1.5971        67.9802         1.5971         0.2211         2.5596         2.5596         2.3709         2.3709         0.2211
      4980.0000         1.5874        70.6616         1.5874         0.2112         2.5866         2.5866         2.3662         2.3662         0.2112
      4980.5000         1.5493           70.4         1.5493         0.2083         2.5867         2.5867          2.342          2.342         0.2083
      4981.0000          1.512           69.2          1.512          0.208         2.5867         2.5867          2.318          2.318          0.208
      4981.5000         1.4847        67.3333         1.4847         0.2091         2.5733         2.5733         2.3187         2.3187         0.2091
      4982.0000         1.4579           64.8         1.4579         0.2147         2.5467         2.5467         2.3207         2.3207         0.2147
      4982.5000         1.4315        62.1333         1.4315         0.2211         2.4933         2.4933         2.3287         2.3287         0.2211
      4983.0000         1.4056        60.6667         1.4056         0.2291         2.4533         2.4533         2.3393         2.3393         0.2291
      4983.5000         1.3802        59.3333         1.3802         0.2485         2.4133         2.4133         2.3447         2.3447         0.2485
      4984.0000         1.3553        57.3333         1.3553         0.2707           2.36           2.36         2.2827         2.2827         0.2707
      4984.5000         1.3227        55.3333         1.3227         0.2797           2.32           2.32         2.2493         2.2493         0.2797
      4985.0000         1.3067        52.5333         1.3067         0.2701         2.2667         2.2667          2.238          2.238         0.2701
      4985.5000         1.2909        50.1333         1.2909         0.2616         2.2533         2.2533           2.24           2.24         0.2616
      4986.0000         1.2909        48.0822         1.2909         0.2608           2.24           2.24          2.248          2.248         0.2608
      4986.5000         1.3147        44.3836         1.3147         0.2608           2.24           2.24           2.25           2.25         0.2608
      4987.0000         1.3471        44.1096         1.3471         0.2624           2.28           2.28          2.234          2.234         0.2624
      4987.5000         1.3719        46.9863         1.3719         0.2632           2.32           2.32         2.2247         2.2247         0.2632
      4988.0000         1.4056         49.589         1.4056         0.2587           2.36           2.36         2.2207         2.2207         0.2587
      4988.5000         1.5305        50.6667         1.5305         0.2528            2.4            2.4         2.2167         2.2167         0.2528
      4989.0000         1.6869        52.9333         1.6869         0.2512           2.44           2.44         2.2133         2.2133         0.2512
      4989.5000         1.8368        57.8667         1.8368         0.2507         2.4533         2.4533         2.2133         2.2133         0.2507
      4990.0000         2.0247        63.3333         2.0247         0.2435         2.4933         2.4933         2.2527         2.2527         0.2435
      4990.5000          2.207          69.33          2.207         0.2365         2.5733         2.5733         2.3932         2.3932         0.2365
      4991.0000         2.4207        78.3984         2.4207         0.2213           2.64           2.64         2.4987         2.4987         0.2213
      4991.5000          2.639           80.4          2.639         0.2019         2.7067         2.7067         2.4913         2.4913         0.2019
      4992.0000         2.7558         79.599         2.7558         0.1824         2.7467         2.7467         2.4707         2.4707         0.1824
      4992.5000         2.7566           80.4         2.7566         0.1683           2.76           2.76          2.474          2.474         0.1683
