#------------------------------------------------------------------------------
# Created by    : mgeorge
# Created on    : 07/19/2023 10:29:21
#------------------------------------------------------------------------------
~Version Information Section
VERS.           2.0     :   CWLS log ASCII Standard - VERSION 2.0
WRAP.           NO      :   One line per depth step
~Well Information Section
#MNEM       .UNIT                                         VALUE :DESCRIPTION
#------------------------------------------------------------------------------
STRT        .FT                                             170 :START DEPTH
STOP        .FT                                            8880 :STOP DEPTH
STEP        .FT                                             0.5 :STEP      
NULL        .                                           -999.25 :NULL      
COMP        .                                       OXY USA INC :COMPANY   
WELL        .                             COVINGTON `A` FEDERAL :WELL      
FLD         .                                     RED TANK WEST :FIELD     
LOC         .                                                   :LOCATION  
CNTY        .                                               LEA :LOCATION  
STAT        .                                        NEW MEXICO :STATE     
CTRY        .                                     UNITED STATES :COUNTRY   
SRVC        .                                                   :SERVICE COMPANY
DATE        .                              8/3/2022 10:24:51 AM :LOG DATE  
API         .                                    30025349870000 :API NUMBER
UWI         .                                    30025349870000 :UNIQUE WELL ID
XCOORD      .                                  979541.866465641 :SURFACE X 
YCOORD      .                                  991455.566234473 :SURFACE Y 
LAT         .                                        32.3508526 :LATITUDE  
LON         .                                      -103.6374947 :LONGITUDE 
ELEV        .FT                                            3773 :ELEVATION VALUE
ELEV_TYPE   .                                                KB :ELEVATION REFERENCE TYPE
~Curve Information Section
#MNEM       .UNIT                                      API CODE :CURVE DESCRIPTION
#------------------------------------------------------------------------------
DEPT        .FT                                                 :DEPTH     
AF90        .OHMM                                               :AF90      
GR          .GAPI                                               :GR        
ILD         .                                                   :ILD       
NPHI        .                                                   :Nphi      
PE          .                                                   :PE        
PEFZ        .BE                                                 :PEFZ      
RHOB        .                                                   :RHOB      
RHOZ        .G/C3                                               :RHOZ      
TNPH        .V/V                                                :TNPH      
~A        DEPTH           AF90             GR            ILD           NPHI             PE           PEFZ           RHOB           RHOZ           TNPH
# ...
      5523.0000         1.7909        59.9401         1.7909         0.1454         2.6667         2.6667         2.3966         2.3966         0.1454
      5523.5000         1.8242        59.5545         1.8242         0.1221         2.7467         2.7467         2.4633         2.4633         0.1221
      5524.0000         1.8354        59.1673         1.8354         0.1142           2.84           2.84         2.4767         2.4767         0.1142
      5524.5000         1.8354          57.98         1.8354         0.1179           2.88           2.88         2.4233         2.4233         0.1179
      5525.0000          1.813        55.4611          1.813         0.1288            2.8            2.8         2.3838         2.3838         0.1288
      5525.5000         1.8019        55.7405         1.8019         0.1411         2.7067         2.7067         2.3568         2.3568         0.1411
      5526.0000         1.8019        52.9549         1.8019         0.1519         2.6133         2.6133           2.31           2.31         0.1519
      5526.5000         1.8019        47.6143         1.8019         0.1845         2.5067         2.5067         2.2627         2.2627         0.1845
      5527.0000         1.8019        47.8948         1.8019         0.2253            2.4            2.4         2.2466         2.2466         0.2253
      5527.5000         1.8019        50.5948         1.8019         0.2328         2.2933         2.2933         2.2587         2.2587         0.2328
      5528.0000         1.8467        53.6743         1.8467         0.2363         2.2933         2.2933         2.2747         2.2747         0.2363
      5528.5000         1.8926        58.3537         1.8926         0.2339           2.32           2.32         2.2867         2.2867         0.2339
      5529.0000         1.9396        63.3014         1.9396         0.2221           2.36           2.36         2.2987         2.2987         0.2221
      5529.5000         1.9878        64.3808         1.9878         0.2133            2.4            2.4         2.3107         2.3107         0.2133
      5530.0000         1.9878        64.9269         1.9878         0.2117         2.4267         2.4267         2.3227         2.3227         0.2117
      5530.5000         2.0123             66         2.0123         0.2051         2.4667         2.4667         2.3347         2.3347         0.2051
      5531.0000         2.0498        67.0667         2.0498         0.2056         2.4667         2.4667         2.3467         2.3467         0.2056
      5531.5000         2.1663        65.3333         2.1663         0.2133         2.4533         2.4533         2.3514         2.3514         0.2133
      5532.0000         2.3035        61.4667         2.3035         0.2211         2.4533         2.4533         2.3487         2.3487         0.2211
      5532.5000         2.4196        58.1333         2.4196         0.2091           2.44           2.44          2.326          2.326         0.2091
      5533.0000         2.5415        55.3333         2.5415         0.1819           2.48           2.48         2.3167         2.3167         0.1819
      5533.5000         2.6695           54.4         2.6695         0.1508           2.56           2.56           2.33           2.33         0.1508
      5534.0000         2.8212        57.7333         2.8212         0.1341           2.68           2.68         2.3703         2.3703         0.1341
      5534.5000         3.1313        60.6667         3.1313         0.1203         2.8533         2.8533         2.4933         2.4933         0.1203
      5535.0000         3.7856        60.5333         3.7856         0.1082           2.96           2.96         2.5153         2.5153         0.1082
      5535.5000         4.6995             58         4.6995         0.0932              3              3         2.5373         2.5373         0.0932
      5536.0000         6.3424        53.7333         6.3424         0.0688           3.12           3.12         2.5593         2.5593         0.0688
      5536.5000         8.6714        49.7297         8.6714         0.0443         3.2933         3.2933         2.5813         2.5813         0.0443
      5537.0000        12.4711        48.9189        12.4711         0.0341            3.4            3.4         2.6034         2.6034         0.0341
      5537.5000        17.9093        48.6486        17.9093         0.0288            3.6            3.6         2.6257         2.6257         0.0288
      5538.0000        24.4949        49.5946        24.4949          0.024         3.7467         3.7467         2.6553         2.6553          0.024
      5538.5000         31.699        52.2667         31.699         0.0235         3.9333         3.9333         2.6793         2.6793         0.0235
      5539.0000        36.7151        54.6667        36.7151         0.0229           4.04           4.04          2.688          2.688         0.0229
      5539.5000        40.2487        55.7333        40.2487         0.0237              4              4         2.6787         2.6787         0.0237
      5540.0000        42.2948        55.4667        42.2948         0.0248           3.92           3.92         2.6673         2.6673         0.0248
      5540.5000        44.1704        55.4594        44.1704         0.0259           3.84           3.84          2.656          2.656         0.0259
      5541.0000        46.1291         55.445        46.1291         0.0267         3.7867         3.7867         2.6446         2.6446         0.0267
      5541.5000        48.1746         55.299        48.1746         0.0277         3.7867         3.7867         2.6324         2.6324         0.0277
      5542.0000        50.6327        54.4863        50.6327         0.0298           3.76           3.76         2.6324         2.6324         0.0298
      5542.5000        51.5967        53.6719        51.5967         0.0341         3.7467         3.7467         2.6324         2.6324         0.0341
      5543.0000        50.6327        55.1259        50.6327         0.0365           3.72           3.72         2.6324         2.6324         0.0365
      5543.5000        48.4742        56.5798        48.4742         0.0389         3.6533         3.6533         2.6358         2.6358         0.0389
      5544.0000        46.4159        55.4987        46.4159         0.0397         3.6267         3.6267         2.6419         2.6419         0.0397
      5544.5000        44.9994        54.9528        44.9994         0.0397         3.6533         3.6533          2.648          2.648         0.0397
      5545.0000        47.8769         51.072        47.8769         0.0395         3.6933         3.6933          2.654          2.654         0.0395
      5545.5000        54.6003        50.1261        54.6003         0.0373         3.7333         3.7333          2.662          2.662         0.0373
      5546.0000        62.2613         50.245        62.2613         0.0346         3.7867         3.7867          2.668          2.668         0.0346
      5546.5000         68.717        49.5599         68.717         0.0322         3.8533         3.8533          2.674          2.674         0.0322
      5547.0000        78.5565        47.9255        78.5565         0.0298         3.8533         3.8533           2.68           2.68         0.0298
      5547.5000        88.3417        45.3433        88.3417         0.0276         3.8533         3.8533          2.686          2.686         0.0276
      5548.0000         77.139        43.9792         77.139         0.0292         3.9333         3.9333         2.6893         2.6893         0.0292
      5548.5000        55.9908        50.3117        55.9908         0.0354         4.0267         4.0267          2.688          2.688         0.0354
      5549.0000         40.499         58.033         40.499         0.0555         4.0533         4.0533          2.672          2.672         0.0555
