#------------------------------------------------------------------------------
# Created by    : mgeorge
# Created on    : 07/19/2023 10:29:23
#------------------------------------------------------------------------------
~Version Information Section
VERS.           2.0     :   CWLS log ASCII Standard - VERSION 2.0
WRAP.           NO      :   One line per depth step
~Well Information Section
#MNEM       .UNIT                                         VALUE :DESCRIPTION
#------------------------------------------------------------------------------
STRT        .FT                                             166 :START DEPTH
STOP        .FT                                           14648 :STOP DEPTH
STEP        .FT                                             0.5 :STEP      
NULL        .                                           -999.25 :NULL      
COMP        .                     DEVON ENERGY PRODUCTION CO LP :COMPANY   
WELL        .                          RIO BLANCO 4 FEDERAL COM :WELL      
FLD         .                               BELL LAKE NORTHEAST :FIELD     
LOC         .                                                   :LOCATION  
CNTY        .                                               LEA :LOCATION  
STAT        .                                        NEW MEXICO :STATE     
CTRY        .                                     UNITED STATES :COUNTRY   
SRVC        .                                                   :SERVICE COMPANY
DATE        .                               8/4/2022 3:29:17 PM :LOG DATE  
API         .                                    30025364250000 :API NUMBER
UWI         .                                    30025364250000 :UNIQUE WELL ID
XCOORD      .                                  1030633.57202521 :SURFACE X 
YCOORD      .                                  982685.374946431 :SURFACE Y 
LAT         .                                        32.3308251 :LATITUDE  
LON         .                                      -103.4713531 :LONGITUDE 
ELEV        .FT                                            3422 :ELEVATION VALUE
ELEV_TYPE   .                                                KB :ELEVATION REFERENCE TYPE
~Curve Information Section
#MNEM       .UNIT                                      API CODE :CURVE DESCRIPTION
#------------------------------------------------------------------------------
DEPT        .FT                                                 :DEPTH     
AF90        .OHMM                                               :AF90      
ASF90       .OHMM                                               :ARRAY INDUCTION FOUR FOOT RESISTIVITY A90
DRESWS      .OHMM                                               :DEEP INDUCTION RESISTIVITY
GR          .GAPI                                               :GR        
GRR         .GAPI                                               :GRR       
GRS         .GAPI                                               :GRS       
GRWS        .GAPI                                               :GAMMA RAY FROM SONIC LOG
RLA5        .OHMM                                               :RLA5      
~A        DEPTH           AF90          ASF90         DRESWS             GR            GRR            GRS           GRWS           RLA5
# ...
     12379.0000        -999.25        -999.25       654.3526        32.2807         41.967        33.6339        35.7404       654.3526
     12379.5000        -999.25        -999.25       200.1682        33.6842        40.8561        34.3388        33.6339       200.1682
     12380.0000        -999.25        -999.25        85.3911        36.4912        40.1202        35.6863        34.3388        85.3911
     12380.5000        -999.25        -999.25       216.8071        38.0702        39.9698         36.703        35.6863       216.8071
     12381.0000        -999.25        -999.25        161.985        39.1228        41.0974        38.3589         36.703        161.985
     12381.5000        -999.25        -999.25        73.7728        39.8246        42.5668        39.8535        38.3589        73.7728
     12382.0000        -999.25        -999.25        59.6602        43.2143         44.179        40.2246        39.8535        59.6602
     12382.5000        -999.25        -999.25        83.1153        50.3571        45.7532        37.8325        40.2246        83.1153
     12383.0000        -999.25        -999.25        75.6593        58.3929        44.9539        34.5898        37.8325        75.6593
     12383.5000        -999.25        -999.25       104.4716        53.5714         42.568        33.0748        34.5898       104.4716
     12384.0000        -999.25        -999.25       140.6164        39.2982        40.4449        33.9502        33.0748       140.6164
     12384.5000        -999.25        -999.25         35.362        27.2222        41.0956        37.9378        33.9502         35.362
     12385.0000        -999.25        -999.25        22.4358        20.7407        44.5838        41.6056        37.9378        22.4358
     12385.5000        -999.25        -999.25        21.2905        20.7407        51.6484        46.9762        41.6056        21.2905
     12386.0000        -999.25        -999.25        25.2671        22.2222        60.4877         52.727        46.9762        25.2671
     12386.5000        -999.25        -999.25         23.444        23.7037        64.4042        58.1152         52.727         23.444
     12387.0000        -999.25        -999.25        16.6705        22.7778        65.8138        60.6643        58.1152        16.6705
     12387.5000        -999.25        -999.25        10.7308        20.7407        69.0045        57.2726        60.6643        10.7308
     12388.0000        -999.25        -999.25        10.0161        20.3704        70.5576        51.1756        57.2726        10.0161
     12388.5000        -999.25        -999.25         64.752        21.2963        60.9233         36.162        51.1756         64.752
     12389.0000        -999.25        -999.25        1723.77        22.4074        48.4581        26.9086         36.162        1723.77
     12389.5000        -999.25        -999.25       4893.545        24.8148        31.4144        19.2367        26.9086       4893.545
     12390.0000        -999.25        -999.25       8455.978        29.2593        25.0085        18.2243        19.2367       8455.978
     12390.5000        -999.25        -999.25       2412.181        28.3333        23.6802        19.1694        18.2243       2412.181
     12391.0000        -999.25        -999.25       8280.689         27.037         23.917        21.2678        19.1694       8280.689
     12391.5000        -999.25        -999.25       2376.646        25.1852        24.9343         22.913        21.2678       2376.646
     12392.0000        -999.25        -999.25       427.1779        27.2222        26.3952        23.3074         22.913       427.1779
     12392.5000        -999.25        -999.25       160.7153        30.8772        26.9985         23.125        23.3074       160.7153
     12393.0000        -999.25        -999.25        145.666        34.5614        25.5197        23.0142         23.125        145.666
     12393.5000        -999.25        -999.25        97.2736         35.614        24.7818         24.303        23.0142        97.2736
     12394.0000        -999.25        -999.25       116.9947        37.5439        26.5037        28.8644         24.303       116.9947
     12394.5000        -999.25        -999.25        40.0232        38.9474        31.1136        32.5029        28.8644        40.0232
     12395.0000        -999.25        -999.25        28.9861        38.0702         35.679        34.2143        32.5029        28.9861
     12395.5000        -999.25        -999.25        45.5303        35.7895        39.0649        33.4477        34.2143        45.5303
     12396.0000        -999.25        -999.25        55.2351        34.5614        41.1225        31.0048        33.4477        55.2351
     12396.5000        -999.25        -999.25        36.6418        34.5614        40.8191        28.8159        31.0048        36.6418
     12397.0000        -999.25        -999.25        29.2765        33.6842        39.4166        28.9039        28.8159        29.2765
     12397.5000        -999.25        -999.25        22.4785        30.3509        39.0649        32.2655        28.9039        22.4785
     12398.0000        -999.25        -999.25         11.599        28.1481        41.9249        37.7232        32.2655         11.599
     12398.5000        -999.25        -999.25         9.8244        29.8148         47.177         41.736        37.7232         9.8244
     12399.0000        -999.25        -999.25        12.9844         32.807        50.3821        42.9869         41.736        12.9844
     12399.5000        -999.25        -999.25        26.9463        29.2593        50.6787        40.3533        42.9869        26.9463
     12400.0000        -999.25        -999.25       128.0513        25.3704        43.6141        36.2305        40.3533       128.0513
     12400.5000        -999.25        -999.25       329.3258        22.5926         38.457        32.6515        36.2305       329.3258
     12401.0000        -999.25        -999.25       723.4776        30.8772          33.33        30.7823        32.6515       723.4776
     12401.5000        -999.25        -999.25       1460.861        41.7857        33.7917        30.5558        30.7823       1460.861
     12402.0000        -999.25        -999.25       659.2291        53.3929        34.8353        30.7045        30.5558       659.2291
     12402.5000        -999.25        -999.25       360.8562        54.2857        36.6913        30.2099        30.7045       360.8562
     12403.0000        -999.25        -999.25       810.1224        49.2857        39.2214        28.5809        30.2099       810.1224
     12403.5000        -999.25        -999.25        586.062        44.6429        40.4988        25.6795        28.5809        586.062
     12404.0000        -999.25        -999.25       1851.356        43.0357        39.9831        22.5412        25.6795       1851.356
     12404.5000        -999.25        -999.25       2159.664        40.7143        35.5927        19.9636        22.5412       2159.664
     12405.0000        -999.25        -999.25       2589.703        37.3684        29.8687        21.3028        19.9636       2589.703
     12405.5000        -999.25        -999.25       510.7893        36.1404        28.3397        27.6317        21.3028       510.7893
     12406.0000        -999.25        -999.25         33.916        37.5439        32.5608        38.4674        27.6317         33.916
     12406.5000        -999.25        -999.25        16.2048        38.9474         42.621        45.7624        38.4674        16.2048
     12407.0000        -999.25        -999.25        27.1964        38.2456         49.021        47.9779        45.7624        27.1964
     12407.5000        -999.25        -999.25         52.355        37.5439        51.7805        46.0243        47.9779         52.355
     12408.0000        -999.25        -999.25          67.35         37.193        47.0344        43.3167        46.0243          67.35
