#------------------------------------------------------------------------------
# Created by    : mgeorge
# Created on    : 07/19/2023 10:29:21
#------------------------------------------------------------------------------
~Version Information Section
VERS.           2.0     :   CWLS log ASCII Standard - VERSION 2.0
WRAP.           NO      :   One line per depth step
~Well Information Section
#MNEM       .UNIT                                         VALUE :DESCRIPTION
#------------------------------------------------------------------------------
STRT        .FT                                             170 :START DEPTH
STOP        .FT                                            8880 :STOP DEPTH
STEP        .FT                                             0.5 :STEP      
NULL        .                                           -999.25 :NULL      
COMP        .                                       OXY USA INC :COMPANY   
WELL        .                             COVINGTON `A` FEDERAL :WELL      
FLD         .                                     RED TANK WEST :FIELD     
LOC         .                                                   :LOCATION  
CNTY        .                                               LEA :LOCATION  
STAT        .                                        NEW MEXICO :STATE     
CTRY        .                                     UNITED STATES :COUNTRY   
SRVC        .                                                   :SERVICE COMPANY
DATE        .                              8/3/2022 10:24:51 AM :LOG DATE  
API         .                                    30025349870000 :API NUMBER
UWI         .                                    30025349870000 :UNIQUE WELL ID
XCOORD      .                                  979541.866465641 :SURFACE X 
YCOORD      .                                  991455.566234473 :SURFACE Y 
LAT         .                                        32.3508526 :LATITUDE  
LON         .                                      -103.6374947 :LONGITUDE 
ELEV        .FT                                            3773 :ELEVATION VALUE
ELEV_TYPE   .                                                KB :ELEVATION REFERENCE TYPE
~Curve Information Section
#MNEM       .UNIT                                      API CODE :CURVE DESCRIPTION
#------------------------------------------------------------------------------
DEPT        .FT                                                 :DEPTH     
AF90        .OHMM                                               :AF90      
GR          .GAPI                                               :GR        
ILD         .                                                   :ILD       
NPHI        .                                                   :Nphi      
PE          .                                                   :PE        
PEFZ        .BE                                                 :PEFZ      
RHOB        .                                                   :RHOB      
RHOZ        .G/C3                                               :RHOZ      
TNPH        .V/V                                                :TNPH      
~A        DEPTH           AF90             GR            ILD           NPHI             PE           PEFZ           RHOB           RHOZ           TNPH
# ...
      8279.0000         2.7025             52         2.7025         0.1115         2.3636         2.3636         2.4753         2.4753         0.1115
      8279.5000         2.6859           51.6         2.6859         0.1164         2.3377         2.3377         2.4793         2.4793         0.1164
      8280.0000         2.6695        52.9333         2.6695         0.1216         2.2727         2.2727          2.482          2.482         0.1216
      8280.5000         2.6531           54.8         2.6531         0.1236         2.2078         2.2078          2.456          2.456         0.1236
      8281.0000         2.6369        57.0667         2.6369         0.1252         2.1429         2.1429          2.436          2.436         0.1252
      8281.5000         2.6047           57.2         2.6047         0.1257         2.1558         2.1558          2.436          2.436         0.1257
      8282.0000         2.5887        57.4667         2.5887         0.1234         2.2078         2.2078         2.4433         2.4433         0.1234
      8282.5000         2.5729        57.4667         2.5729          0.121         2.2727         2.2727         2.4513         2.4513          0.121
      8283.0000         2.5415           56.8         2.5415         0.1186         2.2987         2.2987         2.4593         2.4593         0.1186
      8283.5000         2.5729        55.4667         2.5729         0.1137         2.2468         2.2468         2.4673         2.4673         0.1137
      8284.0000         2.6695        54.1333         2.6695          0.109         2.1948         2.1948         2.4753         2.4753          0.109
      8284.5000         2.7868        55.3333         2.7868         0.1058         2.1948         2.1948         2.4833         2.4833         0.1058
      8285.0000         2.8914        58.5333         2.8914         0.1085         2.2727         2.2727         2.4913         2.4913         0.1085
      8285.5000         3.0184        61.0667         3.0184          0.114         2.2857         2.2857         2.4927         2.4927          0.114
      8286.0000         3.0184           60.8         3.0184         0.1192         2.2727         2.2727          2.486          2.486         0.1192
      8286.5000         2.9452        61.0667         2.9452         0.1239         2.2468         2.2468          2.474          2.474         0.1239
      8287.0000         2.9092           64.4         2.9092         0.1262         2.2338         2.2338         2.4647         2.4647         0.1262
      8287.5000         2.8561        67.0667         2.8561         0.1283         2.2468         2.2468         2.4553         2.4553         0.1283
      8288.0000         2.9092           65.6         2.9092         0.1296         2.2727         2.2727         2.4553         2.4553         0.1296
      8288.5000         2.9634           63.6         2.9634         0.1288         2.2987         2.2987         2.4553         2.4553         0.1288
      8289.0000          3.037        63.0667          3.037         0.1268         2.3247         2.3247         2.4627         2.4627         0.1268
      8289.5000         3.0932           67.2         3.0932         0.1249         2.3377         2.3377           2.47           2.47         0.1249
      8290.0000         3.1506           70.4         3.1506         0.1229         2.3247         2.3247         2.4813         2.4813         0.1229
      8290.5000         3.2286        73.1976         3.2286         0.1216         2.2985         2.2985         2.4927         2.4927         0.1216
      8291.0000         3.2485        76.5296         3.2485         0.1221          2.298          2.298         2.4993         2.4993         0.1221
      8291.5000         3.3494        79.3322         3.3494         0.1262         2.3106         2.3106          2.486          2.486         0.1262
      8292.0000         3.5175        82.5333         3.5175         0.1309         2.3622         2.3622          2.482          2.482         0.1309
      8292.5000         3.6491        85.0667         3.6491         0.1335         2.4008         2.4008         2.5013         2.5013         0.1335
      8293.0000         3.8088           84.8         3.8088         0.1289         2.4526         2.4526         2.5207         2.5207         0.1289
      8293.5000         3.9756        80.5333         3.9756         0.1153         2.5044         2.5044           2.54           2.54         0.1153
      8294.0000         4.1516        76.7839         4.1516         0.1066         2.5563         2.5563         2.5595         2.5595         0.1066
      8294.5000         4.0499        73.6972         4.0499         0.1118         2.5821         2.5821         2.5493         2.5493         0.1118
      8295.0000         3.9513        74.7668         3.9513         0.1186         2.5688         2.5688         2.5387         2.5387         0.1186
      8295.5000         3.8558        77.3143         3.8558         0.1244         2.5031         2.5031         2.5247         2.5247         0.1244
      8296.0000         3.7625        79.7313         3.7625         0.1305         2.4635         2.4635          2.514          2.514         0.1305
      8296.5000         3.6715        82.5333         3.6715         0.1341         2.3977         2.3977          2.514          2.514         0.1341
      8297.0000         3.5608        82.2667         3.5608         0.1334          2.358          2.358          2.512          2.512         0.1334
      8297.5000         3.5391        79.4614         3.5391         0.1315         2.3313         2.3313         2.5093         2.5093         0.1315
      8298.0000         3.6047        77.8443         3.6047         0.1315         2.3046         2.3046         2.5067         2.5067         0.1315
      8298.5000          3.694        76.6296          3.694         0.1318         2.2911         2.2911          2.504          2.504         0.1318
      8299.0000         3.8088        75.9526         3.8088         0.1318         2.2774         2.2774            2.5            2.5         0.1318
      8299.5000         3.9272          75.68         3.9272         0.1316         2.2507         2.2507          2.496          2.496         0.1316
      8300.0000         4.0499        76.7576         4.0499           0.13         2.2502         2.2502          2.492          2.492           0.13
      8300.5000         4.1774        78.7838         4.1774         0.1282           2.25           2.25          2.488          2.488         0.1282
      8301.0000         4.3089           81.2         4.3089         0.1261           2.25           2.25          2.484          2.484         0.1261
      8301.5000          4.417        82.9333          4.417         0.1258           2.25           2.25         2.4827         2.4827         0.1258
      8302.0000         4.5844        83.0667         4.5844         0.1258           2.25           2.25         2.4827         2.4827         0.1258
      8302.5000         4.6995        82.2667         4.6995         0.1253           2.25           2.25         2.5127         2.5127         0.1253
      8303.0000         4.8776        80.9333         4.8776         0.1232           2.25           2.25         2.5153         2.5153         0.1232
      8303.5000         5.1259        79.7297         5.1259         0.1209         2.2763         2.2763         2.5153         2.5153         0.1209
      8304.0000         5.6608        78.3784         5.6608         0.1187         2.3026         2.3026          2.516          2.516         0.1187
      8304.5000          6.404        83.4667          6.404          0.119         2.3421         2.3421         2.5187         2.5187          0.119
      8305.0000         7.5527             90         7.5527         0.1227         2.4211         2.4211         2.5233         2.5233         0.1227
