#------------------------------------------------------------------------------
# Created by    : mgeorge
# Created on    : 07/19/2023 10:29:23
#------------------------------------------------------------------------------
~Version Information Section
VERS.           2.0     :   CWLS log ASCII Standard - VERSION 2.0
WRAP.           NO      :   One line per depth step
~Well Information Section
#MNEM       .UNIT                                         VALUE :DESCRIPTION
#------------------------------------------------------------------------------
STRT        .FT                                             166 :START DEPTH
STOP        .FT                                           14648 :STOP DEPTH
STEP        .FT                                             0.5 :STEP      
NULL        .                                           -999.25 :NULL      
COMP        .                     DEVON ENERGY PRODUCTION CO LP :COMPANY   
WELL        .                          RIO BLANCO 4 FEDERAL COM :WELL      
FLD         .                               BELL LAKE NORTHEAST :FIELD     
LOC         .                                                   :LOCATION  
CNTY        .                                               LEA :LOCATION  
STAT        .                                        NEW MEXICO :STATE     
CTRY        .                                     UNITED STATES :COUNTRY   
SRVC        .                                                   :SERVICE COMPANY
DATE        .                               8/4/2022 3:29:17 PM :LOG DATE  
API         .                                    30025364250000 :API NUMBER
UWI         .                                    30025364250000 :UNIQUE WELL ID
XCOORD      .                                  1030633.57202521 :SURFACE X 
YCOORD      .                                  982685.374946431 :SURFACE Y 
LAT         .                                        32.3308251 :LATITUDE  
LON         .                                      -103.4713531 :LONGITUDE 
ELEV        .FT                                            3422 :ELEVATION VALUE
ELEV_TYPE   .                                                KB :ELEVATION REFERENCE TYPE
~Curve Information Section
#MNEM       .UNIT                                      API CODE :CURVE DESCRIPTION
#------------------------------------------------------------------------------
DEPT        .FT                                                 :DEPTH     
AF90        .OHMM                                               :AF90      
ASF90       .OHMM                                               :ARRAY INDUCTION FOUR FOOT RESISTIVITY A90
DRESWS      .OHMM                                               :DEEP INDUCTION RESISTIVITY
GR          .GAPI                                               :GR        
GRR         .GAPI                                               :GRR       
GRS         .GAPI                                               :GRS       
GRWS        .GAPI                                               :GAMMA RAY FROM SONIC LOG
RLA5        .OHMM                                               :RLA5      
~A        DEPTH           AF90          ASF90         DRESWS             GR            GRR            GRS           GRWS           RLA5
# ...
     11582.5000        -999.25        -999.25        -999.25        39.8246        30.0516        32.1958        32.1958        -999.25
     11583.0000        -999.25        -999.25        -999.25        35.7895        23.8663        22.7331        22.7331        -999.25
     11583.5000        -999.25        -999.25        -999.25        31.2281        22.6244        21.2772        21.2772        -999.25
     11584.0000        -999.25        -999.25        -999.25        28.1481         26.692        26.3726        26.3726        -999.25
     11584.5000        -999.25        -999.25        -999.25        32.2807        34.5789        35.6835        35.6835        -999.25
     11585.0000        -999.25        -999.25        -999.25        37.0175        42.8943        41.6147        41.6147        -999.25
     11585.5000        -999.25        -999.25        -999.25        41.0714        50.6787        49.5529        49.5529        -999.25
     11586.0000        -999.25        -999.25        -999.25        44.2857        54.6771         52.134         52.134        -999.25
     11586.5000        -999.25        -999.25        -999.25        46.0714        57.1795        51.9564        51.9564        -999.25
     11587.0000        -999.25        -999.25        -999.25        48.2143        58.5219        50.2913        50.2913        -999.25
     11587.5000        -999.25        -999.25        -999.25        49.2857        56.7229        50.3902        50.3902        -999.25
     11588.0000        -999.25        -999.25        -999.25        48.2143        54.4874        52.1927        52.1927        -999.25
     11588.5000        -999.25        -999.25        -999.25             45        53.6549        54.4811        54.4811        -999.25
     11589.0000        -999.25        -999.25        -999.25        43.3929        56.6548        54.9177        54.9177        -999.25
     11589.5000        -999.25        -999.25        -999.25        44.6429        60.9607        56.2362        56.2362        -999.25
     11590.0000        -999.25        -999.25        -999.25        47.1429        59.7285        55.0035        55.0035        -999.25
     11590.5000        -999.25        -999.25        -999.25        48.9286        54.9239        48.7154        48.7154        -999.25
     11591.0000        -999.25        -999.25        -999.25        47.3214        47.5182        40.7014        40.7014        -999.25
     11591.5000        -999.25        -999.25        -999.25        43.9286        42.1388        37.4499        37.4499        -999.25
     11592.0000        -999.25        -999.25        -999.25        40.8929        44.8188        39.6872        39.6872        -999.25
     11592.5000        -999.25        -999.25        -999.25        42.1429        51.2623        47.5449        47.5449        -999.25
     11593.0000        -999.25        -999.25        -999.25        46.4286        58.2202        51.8306        51.8306        -999.25
     11593.5000        -999.25        -999.25        -999.25           52.5        60.3318        52.9355        52.9355        -999.25
     11594.0000        -999.25        -999.25        -999.25        51.4286        64.1373        52.0914        52.0914        -999.25
     11594.5000        -999.25        -999.25        -999.25        48.5714        64.8023        50.3812        50.3812        -999.25
     11595.0000        -999.25        -999.25        -999.25        47.1429        64.3155        48.9063        48.9063        -999.25
     11595.5000        -999.25        -999.25        -999.25        50.3571        63.2851        48.3082        48.3082        -999.25
     11596.0000        -999.25        -999.25        -999.25        54.2857        63.6412        48.4882        48.4882        -999.25
     11596.5000        -999.25        -999.25        -999.25        54.2857        65.8556        51.5091        51.5091        -999.25
     11597.0000        -999.25        -999.25        -999.25        46.9643        66.9967        54.0298        54.0298        -999.25
     11597.5000        -999.25        -999.25        -999.25        40.1786        68.0241        56.9005        56.9005        -999.25
     11598.0000        -999.25        -999.25        -999.25        38.0702        68.9291        57.5762        57.5762        -999.25
     11598.5000        -999.25        -999.25        -999.25        37.0175        69.7361        56.7007        56.7007        -999.25
     11599.0000        -999.25        -999.25        -999.25        38.2456        65.2643        54.0932        54.0932        -999.25
     11599.5000        -999.25        -999.25        -999.25        39.8246        63.8684        50.1175        50.1175        -999.25
     11600.0000        -999.25        -999.25        -999.25        40.1786        66.1573        48.7839        48.7839        -999.25
     11600.5000        -999.25        -999.25        -999.25        37.3684        71.3424        52.2421        52.2421        -999.25
     11601.0000        -999.25        -999.25        -999.25        37.0175        74.5769        57.9119        57.9119        -999.25
     11601.5000        -999.25        -999.25        -999.25        37.5439        73.6987        61.5717        61.5717        -999.25
     11602.0000        -999.25        -999.25        -999.25        40.7143         68.909        63.2587        63.2587        -999.25
     11602.5000        -999.25        -999.25        -999.25        44.1071        68.0241        63.3561        63.3561        -999.25
     11603.0000        -999.25        -999.25        -999.25        46.6071        69.6427        63.3277        63.3277        -999.25
     11603.5000        -999.25        -999.25        -999.25        47.8571        72.4742        62.7234        62.7234        -999.25
     11604.0000        -999.25        -999.25        -999.25        46.0714         74.359        59.1524        59.1524        -999.25
     11604.5000        -999.25        -999.25        -999.25        42.3214         68.493        53.2675        53.2675        -999.25
     11605.0000        -999.25        -999.25        -999.25        39.4737         57.555        48.0226        48.0226        -999.25
     11605.5000        -999.25        -999.25        -999.25        39.8246        51.1403        44.0042        44.0042        -999.25
     11606.0000        -999.25        -999.25        -999.25        42.8571         44.169        41.2003        41.2003        -999.25
     11606.5000        -999.25        -999.25        -999.25        47.6786        43.5897        40.8841        40.8841        -999.25
     11607.0000        -999.25        -999.25        -999.25           52.5        45.9282        40.9721        40.9721        -999.25
     11607.5000        -999.25        -999.25        -999.25        55.7143        49.0196        41.6945        41.6945        -999.25
     11608.0000        -999.25        -999.25        -999.25        57.1429        51.8277        42.3282        42.3282        -999.25
     11608.5000        -999.25        -999.25        -999.25        54.1071         52.187        43.1454        43.1454        -999.25
     11609.0000        -999.25        -999.25        -999.25        49.4643        50.5201        44.2585        44.2585        -999.25
     11609.5000        -999.25        -999.25        -999.25           47.5        49.9489        47.0071        47.0071        -999.25
     11610.0000        -999.25        -999.25        -999.25        46.6071        52.4091        51.6663        51.6663        -999.25
     11610.5000        -999.25        -999.25        -999.25        46.6071        53.5586          52.05          52.05        -999.25
     11611.0000        -999.25        -999.25        -999.25        49.2857         53.092         48.971         48.971        -999.25
     11611.5000        -999.25        -999.25        -999.25        54.2857        52.5168        45.3905        45.3905        -999.25
