#------------------------------------------------------------------------------
# Created by    : mgeorge
# Created on    : 07/19/2023 10:29:21
#------------------------------------------------------------------------------
~Version Information Section
VERS.           2.0     :   CWLS log ASCII Standard - VERSION 2.0
WRAP.           NO      :   One line per depth step
~Well Information Section
#MNEM       .UNIT                                         VALUE :DESCRIPTION
#------------------------------------------------------------------------------
STRT        .FT                                             170 :START DEPTH
STOP        .FT                                            8880 :STOP DEPTH
STEP        .FT                                             0.5 :STEP      
NULL        .                                           -999.25 :NULL      
COMP        .                                       OXY USA INC :COMPANY   
WELL        .                             COVINGTON `A` FEDERAL :WELL      
FLD         .                                     RED TANK WEST :FIELD     
LOC         .                                                   :LOCATION  
CNTY        .                                               LEA :LOCATION  
STAT        .                                        NEW MEXICO :STATE     
CTRY        .                                     UNITED STATES :COUNTRY   
SRVC        .                                                   :SERVICE COMPANY
DATE        .                              8/3/2022 10:24:51 AM :LOG DATE  
API         .                                    30025349870000 :API NUMBER
UWI         .                                    30025349870000 :UNIQUE WELL ID
XCOORD      .                                  979541.866465641 :SURFACE X 
YCOORD      .                                  991455.566234473 :SURFACE Y 
LAT         .                                        32.3508526 :LATITUDE  
LON         .                                      -103.6374947 :LONGITUDE 
ELEV        .FT                                            3773 :ELEVATION VALUE
ELEV_TYPE   .                                                KB :ELEVATION REFERENCE TYPE
~Curve Information Section
#MNEM       .UNIT                                      API CODE :CURVE DESCRIPTION
#------------------------------------------------------------------------------
DEPT        .FT                                                 :DEPTH     
AF90        .OHMM                                               :AF90      
GR          .GAPI                                               :GR        
ILD         .                                                   :ILD       
NPHI        .                                                   :Nphi      
PE          .                                                   :PE        
PEFZ        .BE                                                 :PEFZ      
RHOB        .                                                   :RHOB      
RHOZ        .G/C3                                               :RHOZ      
TNPH        .V/V                                                :TNPH      
~A        DEPTH           AF90             GR            ILD           NPHI             PE           PEFZ           RHOB           RHOZ           TNPH
# ...
      4701.5000       202.4725        15.1013       202.4725         0.0277         5.3867         5.3867         2.9927         2.9927         0.0277
      4702.0000       189.2746         12.714       189.2746         0.0203           5.28           5.28         2.9947         2.9947         0.0203
      4702.5000       179.1322        10.5935       179.1322         0.0112         5.2267         5.2267         2.9633         2.9633         0.0112
      4703.0000        170.583         8.9951        170.583        -0.0026         5.1867         5.1867         2.9747         2.9747        -0.0026
      4703.5000       164.4483         7.5219       164.4483         -0.009           5.12           5.12         2.9833         2.9833         -0.009
      4704.0000       164.4628         7.2649       164.4628        -0.0103         5.0533         5.0533         3.0027         3.0027        -0.0103
      4704.5000       175.9132         6.8729       175.9132        -0.0095           5.08           5.08         3.0107         3.0107        -0.0095
      4705.0000       211.3696         9.8592       211.3696        -0.0082         5.1067         5.1067          3.024          3.024        -0.0082
      4705.5000       247.9772        13.2078       247.9772         -0.005         5.1333         5.1333         3.0167         3.0167         -0.005
      4706.0000       236.0844        17.6213       236.0844        -0.0005         5.1733         5.1733         3.0087         3.0087        -0.0005
      4706.5000       174.8826        21.6568       174.8826         0.0064            5.2            5.2         3.0007         3.0007         0.0064
      4707.0000       184.7589        24.7785       184.7589         0.0051         5.1333         5.1333          2.998          2.998         0.0051
      4707.5000        210.075        24.7918        210.075        -0.0011         5.0667         5.0667         2.8909         2.8909        -0.0011
      4708.0000       206.2387        20.7504       206.2387        -0.0072              5              5         2.9165         2.9165        -0.0072
      4708.5000       178.1485        17.1552       178.1485        -0.0074         4.9467         4.9467         2.9359         2.9359        -0.0074
      4709.0000       153.9439        13.9682       153.9439        -0.0075         4.9733         4.9733         2.9553         2.9553        -0.0075
      4709.5000       133.0454        12.1146       133.0454        -0.0075         5.0267         5.0267          2.974          2.974        -0.0075
      4710.0000       114.9989         12.261       114.9989        -0.0075         5.0667         5.0667         2.9933         2.9933        -0.0075
      4710.5000       112.2462        12.9251       112.2462        -0.0077           5.12           5.12          2.954          2.954        -0.0077
      4711.0000       120.0103        13.1786       120.0103        -0.0091           5.16           5.16         2.9066         2.9066        -0.0091
      4711.5000       131.4703        13.1654       131.4703        -0.0101         5.2133         5.2133         2.9179         2.9179        -0.0101
      4712.0000        144.903        12.4856        144.903         -0.012         5.1867         5.1867         2.9299         2.9299         -0.012
      4712.5000       179.2664        11.9391       179.2664        -0.0125         5.1067         5.1067         2.9419         2.9419        -0.0125
      4713.0000       257.2883        11.3926       257.2883        -0.0133         5.0267         5.0267          2.954          2.954        -0.0133
      4713.5000       371.0798        10.4461       371.0798        -0.0141         5.0267         5.0267         2.9613         2.9613        -0.0141
      4714.0000       534.5682        11.2329       534.5682        -0.0149         5.0133         5.0133         2.9466         2.9466        -0.0149
      4714.5000       766.7222        12.1531       766.7222        -0.0141         5.0133         5.0133         2.9813         2.9813        -0.0141
      4715.0000       851.1623        13.2066       851.1623        -0.0125           4.96           4.96          2.978          2.978        -0.0125
      4715.5000       845.9022        14.3918       845.9022        -0.0117         4.9067         4.9067         2.9707         2.9707        -0.0117
      4716.0000       752.8874        15.1786       752.8874        -0.0117         4.9733         4.9733         2.9633         2.9633        -0.0117
      4716.5000       662.2122        15.1654       662.2122         -0.012         4.9867         4.9867         2.9553         2.9553         -0.012
      4717.0000       589.1599        14.3523       589.1599        -0.0123         5.0133         5.0133          2.948          2.948        -0.0123
      4717.5000       518.5687        14.6058       518.5687        -0.0128           5.04           5.04          2.952          2.952        -0.0128
      4718.0000       455.6075        13.7926       455.6075        -0.0131           5.08           5.08          2.962          2.962        -0.0131
      4718.5000       404.9896        12.5794       404.9896        -0.0133           5.08           5.08           2.96           2.96        -0.0133
      4719.0000       350.7702        11.2329       350.7702        -0.0136         5.0533         5.0533          2.954          2.954        -0.0136
      4719.5000            300        10.4198            300        -0.0139         5.0533         5.0533         2.9479         2.9479        -0.0139
      4720.0000       257.2883        10.5399       257.2883        -0.0141         5.0667         5.0667         2.9418         2.9418        -0.0141
      4720.5000        224.762           10.8        224.762        -0.0139         5.2533         5.2533         2.9356         2.9356        -0.0139
      4721.0000       194.0113           11.2       194.0113        -0.0141           5.32           5.32         2.9295         2.9295        -0.0141
      4721.5000       177.0997        11.4667       177.0997        -0.0152         5.2933         5.2933         2.9336         2.9336        -0.0152
      4722.0000       162.6481        10.9333       162.6481         -0.016           5.24           5.24         2.9473         2.9473         -0.016
      4722.5000       162.6481        10.1333       162.6481        -0.0173         5.1733         5.1733           2.96           2.96        -0.0173
      4723.0000       172.8444         9.3243       172.8444        -0.0187           5.12           5.12         2.9687         2.9687        -0.0187
      4723.5000        210.075         8.5135        210.075        -0.0192         5.0533         5.0533          2.982          2.982        -0.0192
      4724.0000       249.5053         7.8378       249.5053        -0.0195         5.0667         5.0667          2.988          2.988        -0.0195
      4724.5000       331.5723         6.8919       331.5723        -0.0195         5.1733         5.1733         2.9867         2.9867        -0.0195
      4725.0000       484.7416         6.2162       484.7416        -0.0192         5.1467         5.1467           2.95           2.95        -0.0192
      4725.5000       785.5648         6.4865       785.5648        -0.0187         5.1067         5.1067           2.95           2.95        -0.0187
      4726.0000       1145.858         8.1081       1145.858        -0.0176         5.1067         5.1067         2.9527         2.9527        -0.0176
      4726.5000       1354.255             10       1354.255        -0.0171         5.1067         5.1067         2.9573         2.9573        -0.0171
      4727.0000       1070.448        12.2667       1070.448        -0.0163         5.1467         5.1467          2.962          2.962        -0.0163
      4727.5000       820.0851        13.8667       820.0851        -0.0155         5.1867         5.1867          2.966          2.966        -0.0155
