#------------------------------------------------------------------------------
# Created by    : mgeorge
# Created on    : 07/19/2023 10:29:38
#------------------------------------------------------------------------------
~Version Information Section
VERS.           2.0     :   CWLS log ASCII Standard - VERSION 2.0
WRAP.           NO      :   One line per depth step
~Well Information Section
#MNEM       .UNIT                                         VALUE :DESCRIPTION
#------------------------------------------------------------------------------
STRT        .FT                                           11964 :START DEPTH
STOP        .FT                                         16416.5 :STOP DEPTH
STEP        .FT                                             0.5 :STEP      
NULL        .                                           -999.25 :NULL      
COMP        .              ADVANCE ENERGY PARTNERS HAT MESA LLC :COMPANY   
WELL        .                                  DAGGER STATE SWD :WELL      
FLD         .                                               SWD :FIELD     
LOC         .                                                   :LOCATION  
CNTY        .                                               LEA :LOCATION  
STAT        .                                        NEW MEXICO :STATE     
CTRY        .                                     UNITED STATES :COUNTRY   
SRVC        .                                                   :SERVICE COMPANY
DATE        .                              1/27/2023 5:38:29 PM :LOG DATE  
API         .                                    30025458150000 :API NUMBER
UWI         .                                    30025458150000 :UNIQUE WELL ID
XCOORD      .                                  990031.214140587 :SURFACE X 
YCOORD      .                                  1027167.67164026 :SURFACE Y 
LAT         .                                        32.4498049 :LATITUDE  
LON         .                                      -103.6069526 :LONGITUDE 
ELEV        .FT                                            3803 :ELEVATION VALUE
ELEV_TYPE   .                                                KB :ELEVATION REFERENCE TYPE
~Curve Information Section
#MNEM       .UNIT                                      API CODE :CURVE DESCRIPTION
#------------------------------------------------------------------------------
DEPT        .FT                                                 :DEPTH     
AF90        .OHMM                                               :AF90      
AFCO90      .MM/M                                               :Array Induction Four Foot Conductivity A90 {F13.4}
AT90        .OHMM                                               :AT90      
ATCO90      .MM/M                                               :ATCO90    
ATRT        .OHMM                                               :ATRT      
CNTC        .HZ                                                 :CNTC      
ECGR        .GAPI                                               :ECGR      
EHGR        .GAPI                                               :EHGR      
GAMMA       .UNITLESS                                           :GAMMA     
GR          .GAPI                                               :GR        
GR_EDTC     .GAPI                                               :GR_EDTC   
HCGR        .GAPI                                               :HCGR      
HGR         .GAPI                                               :HGR       
HNPO        .CFCF                                               :HNPO      
HSGR        .GAPI                                               :HSGR      
ILD         .                                                   :ILD       
MCGR        .GAPI                                               :MCGR      
NPHI        .CFCF                                               :Nphi      
NPOR        .CFCF                                               :NPOR      
NPOR_LIM    .CFCF                                               :NPOR_LIM  
PE          .                                                   :PE        
PEF         .                                                   :PEF       
PEF8        .                                                   :PEF8      
PEFZ        .                                                   :PEFZ      
RHO8        .G/C3                                               :RHO8      
RHOB        .                                                   :RHOB      
RHOZ        .G/C3                                               :RHOZ      
TNPH        .CFCF                                               :TNPH      
TNPH_LIM    .CFCF                                               :TNPH_LIM  
~A        DEPTH           AF90         AFCO90           AT90         ATCO90           ATRT           CNTC           ECGR           EHGR          GAMMA             GR        GR_EDTC           HCGR            HGR           HNPO           HSGR            ILD           MCGR           NPHI           NPOR       NPOR_LIM             PE            PEF           PEF8           PEFZ           RHO8           RHOB           RHOZ           TNPH       TNPH_LIM
# ...
     16140.0000        -999.25        -999.25        -999.25        -999.25        -999.25       5291.357         68.256         60.976        -999.25         67.076         68.938         33.396         59.922           0.03         68.382        -999.25         30.509          0.028          0.027          0.027        -999.25        -999.25          3.693          3.991          2.702        2.68606          2.686          0.032          0.032
     16140.5000        -999.25        -999.25        -999.25        -999.25        -999.25       4675.617         83.128         81.737        -999.25         81.691         92.929         44.482         80.324          0.077         90.794        -999.25         40.826          0.066          0.075          0.075        -999.25        -999.25          4.297           4.18          2.733        2.70316          2.703           0.06           0.06
     16141.0000        -999.25        -999.25        -999.25        -999.25        -999.25       4176.977         98.989        106.662        -999.25         97.278        105.347         53.374        104.819          0.138        104.151        -999.25         49.201          0.094          0.124          0.124        -999.25        -999.25          4.633          4.247          2.771        2.71342          2.713          0.086          0.086
     16141.5000        -999.25        -999.25        -999.25        -999.25        -999.25       3873.094        106.366        108.151        -999.25        104.527        112.892         56.589        106.282          0.112        108.362        -999.25         52.244          0.099          0.113          0.113        -999.25        -999.25          4.048          4.259          2.701           2.71          2.709          0.098          0.098
     16142.0000        -999.25        -999.25        -999.25        -999.25        -999.25       3898.549        108.708        103.867        -999.25        106.829        117.101         57.606        102.072          0.084        106.912        -999.25         53.238          0.105           0.09           0.09        -999.25        -999.25           4.04          4.359          2.693        2.70145          2.701          0.089          0.089
     16142.5000        -999.25        -999.25        -999.25        -999.25        -999.25       4306.055        109.303         115.17        -999.25        107.413        115.914         58.053        113.179          0.108        103.897        -999.25         53.702          0.094           0.11           0.11        -999.25        -999.25          4.554           4.66           2.71        2.70145          2.701          0.089          0.089
     16143.0000        -999.25        -999.25        -999.25        -999.25        -999.25       4798.811         96.208        109.934        -999.25         94.545        100.836         47.261        108.034          0.088         86.143        -999.25         43.511          0.065          0.084          0.084        -999.25        -999.25          5.295           5.03           2.73        2.71684          2.717          0.069          0.069
     16143.5000        -999.25        -999.25        -999.25        -999.25        -999.25       5352.174         70.427         65.437        -999.25         69.209         71.938         32.222         64.306           0.03         60.729        -999.25         29.394          0.022          0.031          0.031        -999.25        -999.25          5.451          5.359          2.717        2.72368          2.724           0.04           0.04
     16144.0000        -999.25        -999.25        -999.25        -999.25        -999.25       5976.439          42.11         36.764        -999.25         41.383         45.711         18.909         36.128          0.012         35.943        -999.25         17.048          0.008          0.014          0.014        -999.25        -999.25          5.666          5.539          2.733        2.73052          2.731          0.018          0.018
     16144.5000        -999.25        -999.25        -999.25        -999.25        -999.25       6489.084         28.056         24.986        -999.25         27.571         28.581         12.895         24.554          0.003         23.726        -999.25         11.519          0.003          0.003          0.003        -999.25        -999.25          5.585          5.658          2.742        2.73736          2.737          0.006          0.006
     16145.0000        -999.25        -999.25        -999.25        -999.25        -999.25       6730.243         22.346         22.606        -999.25         21.959         23.886         10.665         22.215         -0.012         19.271        -999.25           9.41          0.001         -0.007         -0.007        -999.25        -999.25          5.798          5.729          2.738        2.74078          2.741         -0.001         -0.001
     16145.5000        -999.25        -999.25        -999.25        -999.25        -999.25       6862.998          22.16         19.631        -999.25         21.777         22.832          9.971         19.292         -0.001         18.089        -999.25          8.643          0.001         -0.005         -0.005        -999.25        -999.25          5.869          5.803          2.752        2.74591          2.746         -0.001         -0.001
     16146.0000        -999.25        -999.25        -999.25        -999.25        -999.25       6887.596         24.442          24.39        -999.25          24.02         25.903         12.512         23.969         -0.001         20.207        -999.25         10.765          0.001          0.001          0.001        -999.25        -999.25          5.745          5.805          2.737        2.74078           2.74         -0.001         -0.001
     16146.5000        -999.25        -999.25        -999.25        -999.25        -999.25        6817.67         29.083         29.269        -999.25          28.58         24.628         12.878         28.763          0.004         22.621        -999.25         10.777          0.002          0.001          0.001        -999.25        -999.25          5.918          5.835          2.732        2.73394          2.734              0              0
     16147.0000        -999.25        -999.25        -999.25        -999.25        -999.25       6891.066          27.96         33.551        -999.25         27.476         22.335         12.105         32.971          0.002         22.034        -999.25          9.945          0.002          0.003          0.003        -999.25        -999.25          5.704          5.867          2.745        2.73394          2.734          0.001          0.001
     16147.5000        -999.25        -999.25        -999.25        -999.25        -999.25       7060.992         22.442         21.029        -999.25         22.054         18.433          9.598         20.666          0.008          18.39        -999.25          7.746          0.001          0.007          0.007        -999.25        -999.25          6.013          5.942          2.739        2.73736          2.738         -0.001         -0.001
     16148.0000        -999.25        -999.25        -999.25        -999.25        -999.25       7250.685         15.898         12.909        -999.25         15.624         14.286          6.958         12.686         -0.012         13.313        -999.25          5.575         -0.002         -0.009         -0.009        -999.25        -999.25           6.02          5.994          2.738        2.74249          2.743         -0.006         -0.006
     16148.5000        -999.25        -999.25        -999.25        -999.25        -999.25       7443.665         14.233          13.92        -999.25         13.987         12.567          6.389          13.68         -0.015          11.55        -999.25          5.171         -0.004         -0.015         -0.015        -999.25        -999.25          6.035          5.996          2.737        2.73565          2.736         -0.011         -0.011
