#------------------------------------------------------------------------------
# Created by    : mgeorge
# Created on    : 07/19/2023 10:29:21
#------------------------------------------------------------------------------
~Version Information Section
VERS.           2.0     :   CWLS log ASCII Standard - VERSION 2.0
WRAP.           NO      :   One line per depth step
~Well Information Section
#MNEM       .UNIT                                         VALUE :DESCRIPTION
#------------------------------------------------------------------------------
STRT        .FT                                             170 :START DEPTH
STOP        .FT                                            8880 :STOP DEPTH
STEP        .FT                                             0.5 :STEP      
NULL        .                                           -999.25 :NULL      
COMP        .                                       OXY USA INC :COMPANY   
WELL        .                             COVINGTON `A` FEDERAL :WELL      
FLD         .                                     RED TANK WEST :FIELD     
LOC         .                                                   :LOCATION  
CNTY        .                                               LEA :LOCATION  
STAT        .                                        NEW MEXICO :STATE     
CTRY        .                                     UNITED STATES :COUNTRY   
SRVC        .                                                   :SERVICE COMPANY
DATE        .                              8/3/2022 10:24:51 AM :LOG DATE  
API         .                                    30025349870000 :API NUMBER
UWI         .                                    30025349870000 :UNIQUE WELL ID
XCOORD      .                                  979541.866465641 :SURFACE X 
YCOORD      .                                  991455.566234473 :SURFACE Y 
LAT         .                                        32.3508526 :LATITUDE  
LON         .                                      -103.6374947 :LONGITUDE 
ELEV        .FT                                            3773 :ELEVATION VALUE
ELEV_TYPE   .                                                KB :ELEVATION REFERENCE TYPE
~Curve Information Section
#MNEM       .UNIT                                      API CODE :CURVE DESCRIPTION
#------------------------------------------------------------------------------
DEPT        .FT                                                 :DEPTH     
AF90        .OHMM                                               :AF90      
GR          .GAPI                                               :GR        
ILD         .                                                   :ILD       
NPHI        .                                                   :Nphi      
PE          .                                                   :PE        
PEFZ        .BE                                                 :PEFZ      
RHOB        .                                                   :RHOB      
RHOZ        .G/C3                                               :RHOZ      
TNPH        .V/V                                                :TNPH      
~A        DEPTH           AF90             GR            ILD           NPHI             PE           PEFZ           RHOB           RHOZ           TNPH
# ...
      6079.5000         1.4055        70.1351         1.4055         0.2128         2.3514         2.3514         2.3615         2.3615         0.2128
      6080.0000         1.4055             70         1.4055         0.2144         2.3514         2.3514         2.3574         2.3574         0.2144
      6080.5000         1.4055        70.2703         1.4055         0.2171         2.3649         2.3649         2.3534         2.3534         0.2171
      6081.0000         1.4142        70.4054         1.4142         0.2248         2.3919         2.3919         2.3493         2.3493         0.2248
      6081.5000         1.4142        70.8108         1.4142         0.2256         2.4054         2.4054         2.3453         2.3453         0.2256
      6082.0000          1.423        69.8667          1.423         0.2189         2.3919         2.3919         2.3453         2.3453         0.2189
      6082.5000          1.423           68.4          1.423         0.2104         2.3784         2.3784         2.3622         2.3622         0.2104
      6083.0000         1.4952           66.4         1.4952         0.2083         2.3514         2.3514         2.3622         2.3622         0.2083
      6083.5000         1.5907             64         1.5907         0.2133         2.3378         2.3378         2.3534         2.3534         0.2133
      6084.0000         1.6922        62.5333         1.6922         0.2243         2.3243         2.3243         2.3581         2.3581         0.2243
      6084.5000         1.8114        63.3333         1.8114         0.2224         2.3784         2.3784         2.3818         2.3818         0.2224
      6085.0000         1.9152        65.3333         1.9152         0.2085         2.4324         2.4324         2.4053         2.4053         0.2085
      6085.5000         2.0624        68.6667         2.0624         0.1944         2.4865         2.4865         2.4373         2.4373         0.1944
      6086.0000         2.3035        74.0541         2.3035         0.1803         2.5405         2.5405         2.4615         2.4615         0.1803
      6086.5000         2.5571        84.2667         2.5571         0.1677         2.5811         2.5811          2.477          2.477         0.1677
      6087.0000         2.8561        90.5333         2.8561         0.1535         2.6351         2.6351         2.5013         2.5013         0.1535
      6087.5000         3.2089        94.2667         3.2089         0.1468         2.6892         2.6892         2.5253         2.5253         0.1468
      6088.0000         3.4961           92.4         3.4961         0.1497         2.7297         2.7297         2.5427         2.5427         0.1497
      6088.5000         3.2885        88.9333         3.2885         0.1565         2.6757         2.6757          2.544          2.544         0.1565
      6089.0000         2.9816        85.0667         2.9816         0.1621         2.6081         2.6081         2.5307         2.5307         0.1621
      6089.5000         2.5571        79.7297         2.5571         0.1659         2.5405         2.5405         2.5087         2.5087         0.1659
      6090.0000         2.3035         77.027         2.3035         0.1704          2.473          2.473         2.4872         2.4872         0.1704
      6090.5000         2.0875        74.4577         2.0875         0.1749         2.4051         2.4051         2.4574         2.4574         0.1749
      6091.0000         1.9381        72.9699         1.9381         0.1803         2.3368         2.3368          2.436          2.436         0.1803
      6091.5000          1.788        73.5075          1.788         0.1856         2.2821         2.2821          2.414          2.414         0.1856
      6092.0000         1.6701        75.3924         1.6701         0.1952         2.3219         2.3219         2.3993         2.3993         0.1952
      6092.5000         1.6089        77.5443         1.6089         0.1958         2.3753         2.3753         2.3804         2.3804         0.1958
      6093.0000         1.6185        78.8853         1.6185         0.1955         2.3881         2.3881         2.3824         2.3824         0.1955
      6093.5000         1.6082         79.149         1.6082         0.1934         2.3739         2.3739         2.3892         2.3892         0.1934
      6094.0000         1.6079        75.3779         1.6079         0.1918         2.3463         2.3463         2.3946         2.3946         0.1918
      6094.5000         1.5977        72.0154         1.5977          0.198         2.3591         2.3591         2.3919         2.3919          0.198
      6095.0000         1.5974        68.6667         1.5974         0.2057         2.3584         2.3584         2.3858         2.3858         0.2057
      6095.5000         1.5872        65.7333         1.5872         0.2087         2.3712         2.3712         2.3797         2.3797         0.2087
      6096.0000         1.5579        64.6667         1.5579         0.2108          2.357          2.357         2.3736         2.3736         0.2108
      6096.5000         1.5385        64.6667         1.5385         0.2204         2.3428         2.3428         2.3689         2.3689         0.2204
      6097.0000         1.5382           62.8         1.5382         0.2279         2.3422         2.3422         2.3696         2.3696         0.2279
      6097.5000         1.5006             60         1.5006         0.2279          2.328          2.328         2.3824         2.3824         0.2279
      6098.0000         1.4911        59.8667         1.4911         0.2181         2.3003         2.3003         2.3926         2.3926         0.2181
      6098.5000         1.4908        61.8667         1.4908         0.2053         2.2861         2.2861         2.3784         2.3784         0.2053
      6099.0000         1.4814           64.8         1.4814         0.2056         2.3124         2.3124         2.3635         2.3635         0.2056
      6099.5000         1.4721        65.4667         1.4721         0.2064         2.3388         2.3388         2.3534         2.3534         0.2064
      6100.0000         1.4629        64.9333         1.4629         0.2232         2.3246         2.3246         2.3588         2.3588         0.2232
      6100.5000         1.4627        64.6667         1.4627         0.2424          2.298          2.298         2.3669         2.3669         0.2424
      6101.0000         1.4538        65.4667         1.4538         0.2443         2.2994         2.2994          2.375          2.375         0.2443
      6101.5000         1.4449        67.0667         1.4449         0.2335         2.3413         2.3413          2.373          2.373         0.2335
      6102.0000         1.4449           67.6         1.4449         0.2215         2.3427         2.3427         2.3703         2.3703         0.2215
      6102.5000         1.4717        67.8667         1.4717         0.2114         2.3441         2.3441         2.3677         2.3677         0.2114
      6103.0000         1.5269           68.4         1.5269         0.2079         2.3453         2.3453          2.365          2.365         0.2079
      6103.5000         1.6136             70         1.6136         0.2063         2.3196         2.3196          2.367          2.367         0.2063
      6104.0000         1.6947        72.4123         1.6947         0.1978          2.321          2.321         2.3704         2.3704         0.1978
      6104.5000           1.78        76.3025           1.78         0.1871         2.3494         2.3494         2.3812         2.3812         0.1871
      6105.0000          1.881         81.541          1.881          0.175         2.3779         2.3779         2.3933         2.3933          0.175
      6105.5000         1.9756        81.4128         1.9756         0.1766         2.4061         2.4061         2.4067         2.4067         0.1766
