#------------------------------------------------------------------------------
# Created by    : mgeorge
# Created on    : 07/19/2023 10:29:23
#------------------------------------------------------------------------------
~Version Information Section
VERS.           2.0     :   CWLS log ASCII Standard - VERSION 2.0
WRAP.           NO      :   One line per depth step
~Well Information Section
#MNEM       .UNIT                                         VALUE :DESCRIPTION
#------------------------------------------------------------------------------
STRT        .FT                                             166 :START DEPTH
STOP        .FT                                           14648 :STOP DEPTH
STEP        .FT                                             0.5 :STEP      
NULL        .                                           -999.25 :NULL      
COMP        .                     DEVON ENERGY PRODUCTION CO LP :COMPANY   
WELL        .                          RIO BLANCO 4 FEDERAL COM :WELL      
FLD         .                               BELL LAKE NORTHEAST :FIELD     
LOC         .                                                   :LOCATION  
CNTY        .                                               LEA :LOCATION  
STAT        .                                        NEW MEXICO :STATE     
CTRY        .                                     UNITED STATES :COUNTRY   
SRVC        .                                                   :SERVICE COMPANY
DATE        .                               8/4/2022 3:29:17 PM :LOG DATE  
API         .                                    30025364250000 :API NUMBER
UWI         .                                    30025364250000 :UNIQUE WELL ID
XCOORD      .                                  1030633.57202521 :SURFACE X 
YCOORD      .                                  982685.374946431 :SURFACE Y 
LAT         .                                        32.3308251 :LATITUDE  
LON         .                                      -103.4713531 :LONGITUDE 
ELEV        .FT                                            3422 :ELEVATION VALUE
ELEV_TYPE   .                                                KB :ELEVATION REFERENCE TYPE
~Curve Information Section
#MNEM       .UNIT                                      API CODE :CURVE DESCRIPTION
#------------------------------------------------------------------------------
DEPT        .FT                                                 :DEPTH     
AF90        .OHMM                                               :AF90      
ASF90       .OHMM                                               :ARRAY INDUCTION FOUR FOOT RESISTIVITY A90
DRESWS      .OHMM                                               :DEEP INDUCTION RESISTIVITY
GR          .GAPI                                               :GR        
GRR         .GAPI                                               :GRR       
GRS         .GAPI                                               :GRS       
GRWS        .GAPI                                               :GAMMA RAY FROM SONIC LOG
RLA5        .OHMM                                               :RLA5      
~A        DEPTH           AF90          ASF90         DRESWS             GR            GRR            GRS           GRWS           RLA5
# ...
     14178.5000        -999.25        -999.25       54757.09        11.9298          8.393         7.1584         7.1117       54757.09
     14179.0000        -999.25        -999.25       17918.84        13.5088         9.5231          7.065         7.0515       17918.84
     14179.5000        -999.25        -999.25        357.271        18.0702        13.5484          7.038         8.8149        357.271
     14180.0000        -999.25        -999.25       292.4908         27.037        19.1594        10.5917        15.5597       292.4908
     14180.5000        -999.25        -999.25       2285.579        37.3684        33.5259        20.5278        25.5817       2285.579
     14181.0000        -999.25        -999.25       5432.429        44.6429        48.2043        30.6356        34.0326       5432.429
     14181.5000        -999.25        -999.25       2793.984        40.3571        50.2179        37.4296        35.1008       2793.984
     14182.0000        -999.25        -999.25       3618.435        31.9298        44.7407         32.772        29.3331       3618.435
     14182.5000        -999.25        -999.25       10687.55        24.4444        31.2729        25.8943        22.6161       10687.55
     14183.0000        -999.25        -999.25       6897.321        21.8519        24.6479        19.3379        17.7121       6897.321
     14183.5000        -999.25        -999.25       2815.583        20.9259        22.8419        16.0862        16.3127       2815.583
     14184.0000        -999.25        -999.25       3498.965        22.5926        25.5627        16.5392        17.7521       3498.965
     14184.5000        -999.25        -999.25       3085.598        28.3333        29.7862         18.965        22.1249       3085.598
     14185.0000        -999.25        -999.25       968.0964        39.1228        34.6211        25.2847        29.7183       968.0964
     14185.5000        -999.25        -999.25       1164.423        48.3929        49.8842        34.1518        39.2697       1164.423
     14186.0000        -999.25        -999.25       2784.315             55         57.303        44.3877        50.4714       2784.315
     14186.5000        -999.25        -999.25       5848.835        49.8214        58.4716        50.4714        47.2365       5848.835
     14187.0000        -999.25        -999.25       7909.505        42.8571        49.2081        47.2365        39.3321       7909.505
     14187.5000        -999.25        -999.25       15299.31        33.1579        37.9145        39.3321        30.0458       15299.31
     14188.0000        -999.25        -999.25       7346.079        28.1481        30.0076        30.0458        23.7565       7346.079
     14188.5000        -999.25        -999.25       812.5735        34.2105        25.8686        23.7565         25.106       812.5735
     14189.0000        -999.25        -999.25       1048.602          41.25        39.5957         25.106        37.9365       1048.602
     14189.5000        -999.25        -999.25       491.0883           47.5        50.1154        37.9365        50.3384       491.0883
     14190.0000        -999.25        -999.25       2692.235           47.5        59.1686        50.3384        57.6549       2692.235
     14190.5000        -999.25        -999.25        12144.6        38.7719        61.7275        57.6549        52.1084        12144.6
     14191.0000        -999.25        -999.25         3302.9        31.2281        52.7164        52.1084        43.7419         3302.9
     14191.5000        -999.25        -999.25        4591.74        25.5556        42.1434        43.7419        33.1993        4591.74
     14192.0000        -999.25        -999.25       13127.14        23.7037        36.7232        33.1993        27.8774       13127.14
     14192.5000        -999.25        -999.25       15554.07        22.5926        30.4227        27.8774        25.6581       15554.07
     14193.0000        -999.25        -999.25       4333.306             20         26.348        25.6581        22.2794       4333.306
     14193.5000        -999.25        -999.25       3307.124        18.9474         27.057        22.2794        19.2288       3307.124
     14194.0000        -999.25        -999.25        3477.23        20.7407        30.1905        19.2288        20.7428        3477.23
     14194.5000        -999.25        -999.25       7018.544        24.0741        32.4116        20.7428        26.9465       7018.544
     14195.0000        -999.25        -999.25       15727.01        26.1111        32.6654        26.9465        31.2674       15727.01
     14195.5000        -999.25        -999.25        18057.5        24.6296        30.4673        31.2674        29.1843        18057.5
     14196.0000        -999.25        -999.25        14686.8        23.3333        26.6449        29.1843        24.0195        14686.8
     14196.5000        -999.25        -999.25       7280.611        24.8148        24.0862        24.0195        21.1483       7280.611
     14197.0000        -999.25        -999.25       4568.521        28.7037        25.0398        21.1483         20.973       4568.521
     14197.5000        -999.25        -999.25        3692.34        31.9298        27.5001         20.973        24.0615        3692.34
     14198.0000        -999.25        -999.25       7401.798        36.3158        31.0622        24.0615        28.1422       7401.798
     14198.5000        -999.25        -999.25       4108.914        41.0714        35.9525        28.1422        31.4239       4108.914
     14199.0000        -999.25        -999.25       2952.654        50.7143        40.4049        31.4239        34.5677       2952.654
     14199.5000        -999.25        -999.25       398.7789        66.7857        48.8789        34.5677         44.097       398.7789
     14200.0000        -999.25        -999.25       215.8555        82.1429         63.089         44.097        56.5223       215.8555
     14200.5000        -999.25        -999.25       551.2466        78.5965        90.8219        56.5223        72.7578       551.2466
     14201.0000        -999.25        -999.25       978.8408        60.7143       102.5737        72.7578        79.8902       978.8408
     14201.5000        -999.25        -999.25       1033.847        43.0357        99.1612        79.8902        70.3528       1033.847
     14202.0000        -999.25        -999.25       1772.584        23.1481        84.1094        70.3528        51.6548       1772.584
     14202.5000        -999.25        -999.25       5713.335        22.2222        61.3954        51.6548        35.5465       5713.335
     14203.0000        -999.25        -999.25       1692.686        21.4815        37.9767        35.5465        26.1916       1692.686
     14203.5000        -999.25        -999.25       4390.844        21.4815        23.9893        26.1916        18.6586       4390.844
     14204.0000        -999.25        -999.25       8649.518         22.037        22.9709        18.6586        15.7338       8649.518
     14204.5000        -999.25        -999.25       437.8312        22.7778        25.1377        15.7338        15.4279       437.8312
     14205.0000        -999.25        -999.25       525.1177        21.6667        27.4006        15.4279        16.4784       525.1177
     14205.5000        -999.25        -999.25       1476.558        19.1228        28.7969        16.4784        17.5289       1476.558
     14206.0000        -999.25        -999.25       2509.714         17.193        29.1374        17.5289        18.1654       2509.714
     14206.5000        -999.25        -999.25       1948.917        16.8421        25.9829        18.1654        17.9942       1948.917
     14207.0000        -999.25        -999.25       4704.655        17.3684        19.9632        17.9942        17.6072       4704.655
     14207.5000        -999.25        -999.25       9438.857        19.8246        18.9155        17.6072        17.4637       9438.857
