#------------------------------------------------------------------------------
# Created by    : mgeorge
# Created on    : 07/19/2023 10:29:23
#------------------------------------------------------------------------------
~Version Information Section
VERS.           2.0     :   CWLS log ASCII Standard - VERSION 2.0
WRAP.           NO      :   One line per depth step
~Well Information Section
#MNEM       .UNIT                                         VALUE :DESCRIPTION
#------------------------------------------------------------------------------
STRT        .FT                                             166 :START DEPTH
STOP        .FT                                           14648 :STOP DEPTH
STEP        .FT                                             0.5 :STEP      
NULL        .                                           -999.25 :NULL      
COMP        .                     DEVON ENERGY PRODUCTION CO LP :COMPANY   
WELL        .                          RIO BLANCO 4 FEDERAL COM :WELL      
FLD         .                               BELL LAKE NORTHEAST :FIELD     
LOC         .                                                   :LOCATION  
CNTY        .                                               LEA :LOCATION  
STAT        .                                        NEW MEXICO :STATE     
CTRY        .                                     UNITED STATES :COUNTRY   
SRVC        .                                                   :SERVICE COMPANY
DATE        .                               8/4/2022 3:29:17 PM :LOG DATE  
API         .                                    30025364250000 :API NUMBER
UWI         .                                    30025364250000 :UNIQUE WELL ID
XCOORD      .                                  1030633.57202521 :SURFACE X 
YCOORD      .                                  982685.374946431 :SURFACE Y 
LAT         .                                        32.3308251 :LATITUDE  
LON         .                                      -103.4713531 :LONGITUDE 
ELEV        .FT                                            3422 :ELEVATION VALUE
ELEV_TYPE   .                                                KB :ELEVATION REFERENCE TYPE
~Curve Information Section
#MNEM       .UNIT                                      API CODE :CURVE DESCRIPTION
#------------------------------------------------------------------------------
DEPT        .FT                                                 :DEPTH     
AF90        .OHMM                                               :AF90      
ASF90       .OHMM                                               :ARRAY INDUCTION FOUR FOOT RESISTIVITY A90
DRESWS      .OHMM                                               :DEEP INDUCTION RESISTIVITY
GR          .GAPI                                               :GR        
GRR         .GAPI                                               :GRR       
GRS         .GAPI                                               :GRS       
GRWS        .GAPI                                               :GAMMA RAY FROM SONIC LOG
RLA5        .OHMM                                               :RLA5      
~A        DEPTH           AF90          ASF90         DRESWS             GR            GRR            GRS           GRWS           RLA5
# ...
     12762.5000        -999.25        -999.25         5.1276        69.2857        40.2338        50.5836        35.9929         5.1276
     12763.0000        -999.25        -999.25         4.2921        69.1071        47.5264        63.1315        50.5836         4.2921
     12763.5000        -999.25        -999.25         4.9123        71.0526        73.7015        74.4073        63.1315         4.9123
     12764.0000        -999.25        -999.25         5.9419        73.6842        90.3196        74.5336        74.4073         5.9419
     12764.5000        -999.25        -999.25         6.8842        70.7018        93.0178        69.9743        74.5336         6.8842
     12765.0000        -999.25        -999.25         7.4128        66.9643        89.9279        68.3457        69.9743         7.4128
     12765.5000        -999.25        -999.25         7.6402        64.4643        87.2832        67.9064        68.3457         7.6402
     12766.0000        -999.25        -999.25          7.788        64.4643        86.3767        66.9402        67.9064          7.788
     12766.5000        -999.25        -999.25         7.8964        66.4286        86.2244        65.0595        66.9402         7.8964
     12767.0000        -999.25        -999.25         8.0967        68.0357        88.1238        65.0915        65.0595         8.0967
     12767.5000        -999.25        -999.25         8.1981        68.9286        90.4276        65.9543        65.0915         8.1981
     12768.0000        -999.25        -999.25         8.3582        68.5714        91.1973        64.6837        65.9543         8.3582
     12768.5000        -999.25        -999.25         8.5805        67.3214        89.1068        64.0007        64.6837         8.5805
     12769.0000        -999.25        -999.25         8.9826        65.3571        81.5383        64.4339        64.0007         8.9826
     12769.5000        -999.25        -999.25         9.5326          61.25        75.9864        65.6463        64.4339         9.5326
     12770.0000        -999.25        -999.25         9.9778        55.7143        74.7914        65.2631        65.6463         9.9778
     12770.5000        -999.25        -999.25         9.2988        53.3929        76.3619        64.3306        65.2631         9.2988
     12771.0000        -999.25        -999.25         8.6385        54.1071        79.1725        64.2741        64.3306         8.6385
     12771.5000        -999.25        -999.25         8.9215        56.4286        81.0422        65.1349        64.2741         8.9215
     12772.0000        -999.25        -999.25         9.2565        60.8929        82.3098        66.4307        65.1349         9.2565
     12772.5000        -999.25        -999.25         8.8806        67.6786        81.9638        67.1136        66.4307         8.8806
     12773.0000        -999.25        -999.25         9.5713        75.0877        81.2274        66.3551        67.1136         9.5713
     12773.5000        -999.25        -999.25        11.3202        76.3158        81.5276        62.7938        66.3551        11.3202
     12774.0000        -999.25        -999.25         12.429         72.807        81.8284        61.6014        62.7938         12.429
     12774.5000        -999.25        -999.25        11.1651        72.9825        81.1165        66.0302        61.6014        11.1651
     12775.0000        -999.25        -999.25         9.6644        75.4386        80.9201        72.2374        66.0302         9.6644
     12775.5000        -999.25        -999.25         7.1769        69.1071        83.3585        77.5136        72.2374         7.1769
     12776.0000        -999.25        -999.25         5.2474        56.9643        88.2676        83.2024        77.5136         5.2474
     12776.5000        -999.25        -999.25         4.7144        46.9643        92.2797        85.4587        83.2024         4.7144
     12777.0000        -999.25        -999.25         5.2216        50.1786        91.1317         84.663        85.4587         5.2216
     12777.5000        -999.25        -999.25        24.0296        59.6429        90.3652        85.6213         84.663        24.0296
     12778.0000        -999.25        -999.25        74.4532        76.1404        93.9291        88.7244        85.6213        74.4532
     12778.5000        -999.25        -999.25        17.2375        81.0714        99.3786        89.0839        88.7244        17.2375
     12779.0000        -999.25        -999.25        60.7762           87.5        92.7965         78.163        89.0839        60.7762
     12779.5000        -999.25        -999.25       435.7461         92.963         75.936        60.2413         78.163       435.7461
     12780.0000        -999.25        -999.25       520.1232        97.2222        60.1305        50.4098        60.2413       520.1232
     12780.5000        -999.25        -999.25       230.8319        93.5185        54.9605        52.8591        50.4098       230.8319
     12781.0000        -999.25        -999.25       119.6497        90.5556        56.0147        63.1807        52.8591       119.6497
     12781.5000        -999.25        -999.25        56.0866        89.8214        62.8927        74.8083        63.1807        56.0866
     12782.0000        -999.25        -999.25        34.3944        88.2143        76.6561         84.464        74.8083        34.3944
     12782.5000        -999.25        -999.25         21.348        82.8571        93.7702        90.6583         84.464         21.348
     12783.0000        -999.25        -999.25        18.1229        78.4211       102.9012        91.7522        90.6583        18.1229
     12783.5000        -999.25        -999.25        14.2399        80.5357       109.7797        91.9467        91.7522        14.2399
     12784.0000        -999.25        -999.25        11.6516        86.7857       111.8133        92.7567        91.9467        11.6516
     12784.5000        -999.25        -999.25        10.9595         92.037       106.5358         93.903        92.7567        10.9595
     12785.0000        -999.25        -999.25        19.9435        87.6786       104.6477        93.6829         93.903        19.9435
     12785.5000        -999.25        -999.25         51.271           82.5       107.9342        90.1972        93.6829         51.271
     12786.0000        -999.25        -999.25       363.3342        78.2456        114.117          84.92        90.1972       363.3342
     12786.5000        -999.25        -999.25       450.0884        75.4386       124.4255        87.0091          84.92       450.0884
     12787.0000        -999.25        -999.25        41.6098        75.4386       127.8104        93.2278        87.0091        41.6098
     12787.5000        -999.25        -999.25        20.1409        76.4912       128.0923       100.5651        93.2278        20.1409
     12788.0000        -999.25        -999.25        25.6953        78.9474       119.3421        102.529       100.5651        25.6953
     12788.5000        -999.25        -999.25        17.9525        84.6429       113.3073        99.5844        102.529        17.9525
     12789.0000        -999.25        -999.25        15.9685        92.2222       109.4908        96.6399        99.5844        15.9685
     12789.5000        -999.25        -999.25        37.3168        95.9259       108.5269        92.5503        96.6399        37.3168
     12790.0000        -999.25        -999.25        20.1738        93.3333       108.7388         91.145        92.5503        20.1738
     12790.5000        -999.25        -999.25        17.8567        89.4643       110.6555         92.397         91.145        17.8567
     12791.0000        -999.25        -999.25        18.9976        83.5714       114.2071        94.5467         92.397        18.9976
     12791.5000        -999.25        -999.25        14.7231        78.2456       115.4103        94.5954        94.5467        14.7231
