#------------------------------------------------------------------------------
# Created by    : mgeorge
# Created on    : 07/19/2023 10:29:21
#------------------------------------------------------------------------------
~Version Information Section
VERS.           2.0     :   CWLS log ASCII Standard - VERSION 2.0
WRAP.           NO      :   One line per depth step
~Well Information Section
#MNEM       .UNIT                                         VALUE :DESCRIPTION
#------------------------------------------------------------------------------
STRT        .FT                                             170 :START DEPTH
STOP        .FT                                            8880 :STOP DEPTH
STEP        .FT                                             0.5 :STEP      
NULL        .                                           -999.25 :NULL      
COMP        .                                       OXY USA INC :COMPANY   
WELL        .                             COVINGTON `A` FEDERAL :WELL      
FLD         .                                     RED TANK WEST :FIELD     
LOC         .                                                   :LOCATION  
CNTY        .                                               LEA :LOCATION  
STAT        .                                        NEW MEXICO :STATE     
CTRY        .                                     UNITED STATES :COUNTRY   
SRVC        .                                                   :SERVICE COMPANY
DATE        .                              8/3/2022 10:24:51 AM :LOG DATE  
API         .                                    30025349870000 :API NUMBER
UWI         .                                    30025349870000 :UNIQUE WELL ID
XCOORD      .                                  979541.866465641 :SURFACE X 
YCOORD      .                                  991455.566234473 :SURFACE Y 
LAT         .                                        32.3508526 :LATITUDE  
LON         .                                      -103.6374947 :LONGITUDE 
ELEV        .FT                                            3773 :ELEVATION VALUE
ELEV_TYPE   .                                                KB :ELEVATION REFERENCE TYPE
~Curve Information Section
#MNEM       .UNIT                                      API CODE :CURVE DESCRIPTION
#------------------------------------------------------------------------------
DEPT        .FT                                                 :DEPTH     
AF90        .OHMM                                               :AF90      
GR          .GAPI                                               :GR        
ILD         .                                                   :ILD       
NPHI        .                                                   :Nphi      
PE          .                                                   :PE        
PEFZ        .BE                                                 :PEFZ      
RHOB        .                                                   :RHOB      
RHOZ        .G/C3                                               :RHOZ      
TNPH        .V/V                                                :TNPH      
~A        DEPTH           AF90             GR            ILD           NPHI             PE           PEFZ           RHOB           RHOZ           TNPH
# ...
      5258.0000         5.0952       198.9333         5.0952         0.2128         2.6933         2.6933         2.4256         2.4256         0.2128
      5258.5000         7.5289       198.9333         7.5289         0.1995         2.7333         2.7333         2.4458         2.4458         0.1995
      5259.0000         9.2833       198.9333         9.2833         0.1699           2.64           2.64         2.4657         2.4657         0.1699
      5259.5000        11.3052       198.9333        11.3052         0.1301         2.4267         2.4267          2.473          2.473         0.1301
      5260.0000        11.3748       198.9333        11.3748          0.132         2.3067         2.3067         2.4776         2.4776          0.132
      5260.5000        11.3748       198.9296        11.3748         0.1441         2.3067         2.3067         2.4849         2.4849         0.1441
      5261.0000        12.0204       198.9231        12.0204         0.1562         2.3067         2.3067         2.4921         2.4921         0.1562
      5261.5000        12.8595       198.9165        12.8595          0.168         2.3067         2.3067         2.4993         2.4993          0.168
      5262.0000        13.7571       198.9091        13.7571           0.18         2.3067         2.3067          2.502          2.502           0.18
      5262.5000        15.4576       198.9026        15.4576         0.1864         2.3067         2.3067         2.4882         2.4882         0.1864
      5263.0000        17.5827       178.3689        17.5827         0.1856         2.4133         2.4133         2.4783         2.4783         0.1856
      5263.5000        19.3959       149.4521        19.3959         0.1821         2.5467         2.5467         2.4842         2.4842         0.1821
      5264.0000        17.7998       126.7568        17.7998         0.1497         2.6933         2.6933         2.5033         2.5033         0.1497
      5264.5000        15.9391       100.1351        15.9391         0.1216         2.7867         2.7867          2.522          2.522         0.1216
      5265.0000        14.9907        93.2699        14.9907         0.1077           2.88           2.88          2.532          2.532         0.1077
      5265.5000         13.673        94.1958         13.673         0.1096           2.96           2.96         2.5353         2.5353         0.1096
      5266.0000        12.4711       100.6757        12.4711         0.1171           2.96           2.96          2.542          2.542         0.1171
      5266.5000        13.5063       105.8108        13.5063         0.1235         2.9733         2.9733          2.528          2.528         0.1235
      5267.0000        14.5379       118.1333        14.5379         0.1307         3.0533         3.0533         2.5253         2.5253         0.1307
      5267.5000        14.1856          130.8        14.1856         0.1387           3.16           3.16          2.546          2.546         0.1387
      5268.0000          13.26            136          13.26         0.1573           3.28           3.28         2.5413         2.5413         0.1573
      5268.5000         10.698          134.4         10.698         0.1789         3.2267         3.2267          2.532          2.532         0.1789
      5269.0000         8.8342       134.9333         8.8342         0.1981         3.1067         3.1067           2.51           2.51         0.1981
      5269.5000         7.4833          136.8         7.4833         0.1984         3.0267         3.0267         2.5167         2.5167         0.1984
      5270.0000         6.2261       129.3243         6.2261         0.1997         2.9333         2.9333          2.522          2.522         0.1997
      5270.5000         5.2577          116.4         5.2577         0.1987         2.9067         2.9067         2.5247         2.5247         0.1987
      5271.0000         4.3357       100.1351         4.3357         0.1749         2.8533         2.8533         2.5147         2.5147         0.1749
      5271.5000         3.8318       100.1351         3.8318         0.1514         2.7867         2.7867         2.5027         2.5027         0.1514
      5272.0000         3.6033        77.3684         3.6033         0.1435           2.72           2.72         2.4914         2.4914         0.1435
      5272.5000         3.3672        73.6842         3.3672          0.147           2.64           2.64         2.4836         2.4836          0.147
      5273.0000          3.305        73.0263          3.305         0.1514         2.6133         2.6133         2.4822         2.4822         0.1514
      5273.5000         3.3247        72.3684         3.3247         0.1541         2.5733         2.5733         2.4704         2.4704         0.1541
      5274.0000         3.4282           65.6         3.4282         0.1524         2.5467         2.5467         2.4586         2.4586         0.1524
      5274.5000         3.4703        59.7333         3.4703         0.1376           2.48           2.48         2.4466         2.4466         0.1376
      5275.0000         3.5129        55.3333         3.5129          0.104         2.4533         2.4533         2.4426         2.4426          0.104
      5275.5000         3.4907        53.3333         3.4907         0.0864           2.44           2.44         2.4914         2.4914         0.0864
      5276.0000         3.2602        52.6667         3.2602         0.0824         2.6267         2.6267         2.5407         2.5407         0.0824
      5276.5000         2.9519        57.7333         2.9519         0.0912           2.84           2.84         2.5367         2.5367         0.0912
      5277.0000         2.6913        63.4667         2.6913         0.1157         2.8267         2.8267         2.4901         2.4901         0.1157
      5277.5000         2.4088        69.3333         2.4088         0.1336            2.6            2.6         2.4277         2.4277         0.1336
      5278.0000         2.1961           72.5         2.1961           0.15         2.3867         2.3867         2.4115         2.4115           0.15
      5278.5000          2.142        74.4737          2.142         0.1578           2.32           2.32         2.4122         2.4122         0.1578
      5279.0000         2.0766        73.1579         2.0766         0.1624         2.2133         2.2133         2.4196         2.4196         0.1624
      5279.5000         2.0507        71.8421         2.0507         0.1635         2.1467         2.1467         2.4236         2.4236         0.1635
      5280.0000           2.05           69.2           2.05         0.1586         2.1333         2.1333         2.4203         2.4203         0.1586
      5280.5000         2.0498        67.0643         2.0498         0.1248         2.2933         2.2933         2.4553         2.4553         0.1248
      5281.0000         2.0247        65.3279         2.0247         0.1256         2.4133         2.4133         2.4809         2.4809         0.1256
      5281.5000         1.9635        65.3243         1.9635         0.1403         2.4267         2.4267         2.4592         2.4592         0.1403
      5282.0000         1.8354        64.6556         1.8354           0.16         2.3733         2.3733         2.4128         2.4128           0.16
      5282.5000         1.7262        62.9244         1.7262         0.1773         2.3067         2.3067          2.378          2.378         0.1773
      5283.0000         1.6537        61.7269         1.6537         0.1784         2.2533         2.2533         2.3432         2.3432         0.1784
      5283.5000         1.6235        61.3275         1.6235           0.18            2.2            2.2         2.3412         2.3412           0.18
      5284.0000         1.6235        60.5307         1.6235         0.1837            2.2            2.2         2.3493         2.3493         0.1837
