#------------------------------------------------------------------------------
# Created by    : mgeorge
# Created on    : 07/19/2023 10:29:23
#------------------------------------------------------------------------------
~Version Information Section
VERS.           2.0     :   CWLS log ASCII Standard - VERSION 2.0
WRAP.           NO      :   One line per depth step
~Well Information Section
#MNEM       .UNIT                                         VALUE :DESCRIPTION
#------------------------------------------------------------------------------
STRT        .FT                                             166 :START DEPTH
STOP        .FT                                           14648 :STOP DEPTH
STEP        .FT                                             0.5 :STEP      
NULL        .                                           -999.25 :NULL      
COMP        .                     DEVON ENERGY PRODUCTION CO LP :COMPANY   
WELL        .                          RIO BLANCO 4 FEDERAL COM :WELL      
FLD         .                               BELL LAKE NORTHEAST :FIELD     
LOC         .                                                   :LOCATION  
CNTY        .                                               LEA :LOCATION  
STAT        .                                        NEW MEXICO :STATE     
CTRY        .                                     UNITED STATES :COUNTRY   
SRVC        .                                                   :SERVICE COMPANY
DATE        .                               8/4/2022 3:29:17 PM :LOG DATE  
API         .                                    30025364250000 :API NUMBER
UWI         .                                    30025364250000 :UNIQUE WELL ID
XCOORD      .                                  1030633.57202521 :SURFACE X 
YCOORD      .                                  982685.374946431 :SURFACE Y 
LAT         .                                        32.3308251 :LATITUDE  
LON         .                                      -103.4713531 :LONGITUDE 
ELEV        .FT                                            3422 :ELEVATION VALUE
ELEV_TYPE   .                                                KB :ELEVATION REFERENCE TYPE
~Curve Information Section
#MNEM       .UNIT                                      API CODE :CURVE DESCRIPTION
#------------------------------------------------------------------------------
DEPT        .FT                                                 :DEPTH     
AF90        .OHMM                                               :AF90      
ASF90       .OHMM                                               :ARRAY INDUCTION FOUR FOOT RESISTIVITY A90
DRESWS      .OHMM                                               :DEEP INDUCTION RESISTIVITY
GR          .GAPI                                               :GR        
GRR         .GAPI                                               :GRR       
GRS         .GAPI                                               :GRS       
GRWS        .GAPI                                               :GAMMA RAY FROM SONIC LOG
RLA5        .OHMM                                               :RLA5      
~A        DEPTH           AF90          ASF90         DRESWS             GR            GRR            GRS           GRWS           RLA5
# ...
     11966.0000        -999.25        -999.25        37.1786        75.6897        92.6094        81.9071        81.7011        37.1786
     11966.5000        -999.25        -999.25        20.2611        76.8966        89.8759        83.5126        81.9071        20.2611
     11967.0000        -999.25        -999.25          7.697             80        93.3848        90.3116        83.5126          7.697
     11967.5000        -999.25        -999.25         9.0181        86.0714       101.5241        96.0205        90.3116         9.0181
     11968.0000        -999.25        -999.25         5.9246        89.6429       114.1624       101.7293        96.0205         5.9246
     11968.5000        -999.25        -999.25         9.0804        91.4815       120.3716       102.9257       101.7293         9.0804
     11969.0000        -999.25        -999.25         5.1788       100.1724         123.24       105.4583       102.9257         5.1788
     11969.5000        -999.25        -999.25         4.8439       102.4138       122.4736       106.8838       105.4583         4.8439
     11970.0000        -999.25        -999.25         6.1974       104.8276       120.3465        99.2771       106.8838         6.1974
     11970.5000        -999.25        -999.25         6.0854       102.2414       120.0603        98.2927        99.2771         6.0854
     11971.0000        -999.25        -999.25         6.7995             95       119.7578        95.4822        98.2927         6.7995
     11971.5000        -999.25        -999.25         8.4883        87.1429       118.5335        94.2156        95.4822         8.4883
     11972.0000        -999.25        -999.25         7.7848        78.9655       115.0907        91.7592        94.2156         7.7848
     11972.5000        -999.25        -999.25         8.6005             75       112.8052        87.8674        91.7592         8.6005
     11973.0000        -999.25        -999.25         7.6361        81.7857       112.5189        84.8501        87.8674         7.6361
     11973.5000        -999.25        -999.25         7.2084        79.3103       113.5276        89.8042        84.8501         7.2084
     11974.0000        -999.25        -999.25         8.6055        71.0345       116.3286        95.9018        89.8042         8.6055
     11974.5000        -999.25        -999.25         6.2493        62.3214       120.1248       102.0445        95.9018         6.2493
     11975.0000        -999.25        -999.25         8.5936           62.5       122.2387        99.1902       102.0445         8.5936
     11975.5000        -999.25        -999.25        14.0225        67.1429       115.7018        95.6698        99.1902        14.0225
     11976.0000        -999.25        -999.25        12.7364        71.5517       106.5798        87.5731        95.6698        12.7364
     11976.5000        -999.25        -999.25         15.392        75.8621        99.0395        82.6958        87.5731         15.392
     11977.0000        -999.25        -999.25        14.1546        80.7143          98.19        80.4383        82.6958        14.1546
     11977.5000        -999.25        -999.25        17.9774        85.1786        99.6764        82.8748        80.4383        17.9774
     11978.0000        -999.25        -999.25          20.85        87.6786       103.1089        89.9686        82.8748          20.85
     11978.5000        -999.25        -999.25        12.1596        85.1786       104.6045        96.4198        89.9686        12.1596
     11979.0000        -999.25        -999.25        21.7759        80.3571       106.3595        94.5121        96.4198        21.7759
     11979.5000        -999.25        -999.25        28.0624        76.5517       108.1448         83.434        94.5121        28.0624
     11980.0000        -999.25        -999.25        30.7279        79.1379       105.5219         76.613         83.434        30.7279
     11980.5000        -999.25        -999.25        18.8545        86.4286       101.2779         75.847         76.613        18.8545
     11981.0000        -999.25        -999.25        16.2652        92.7778         95.687        77.9397         75.847        16.2652
     11981.5000        -999.25        -999.25         17.558        93.3333         93.816        80.1323        77.9397         17.558
     11982.0000        -999.25        -999.25        19.7147        91.6667        95.7695        81.6846        80.1323        19.7147
     11982.5000        -999.25        -999.25        12.7332        89.4643       100.2555        83.3025        81.6846        12.7332
     11983.0000        -999.25        -999.25         9.3986        88.5714       104.8265        86.5496        83.3025         9.3986
     11983.5000        -999.25        -999.25         7.8832             90       114.9888        90.8328        86.5496         7.8832
     11984.0000        -999.25        -999.25        10.4427        91.2963       117.3454        93.5752        90.8328        10.4427
     11984.5000        -999.25        -999.25        13.1738        86.6071       113.3565        91.2588        93.5752        13.1738
     11985.0000        -999.25        -999.25         9.2585        77.2414       110.2957        89.7576        91.2588         9.2585
     11985.5000        -999.25        -999.25         8.2617        68.5714       108.8066        90.0667        89.7576         8.2617
     11986.0000        -999.25        -999.25         9.3606        58.9286       107.6392        93.1148        90.0667         9.3606
     11986.5000        -999.25        -999.25         5.9384        52.3214       106.3287        96.7549        93.1148         5.9384
     11987.0000        -999.25        -999.25         4.9532        54.8214       105.4299        99.0987        96.7549         4.9532
     11987.5000        -999.25        -999.25         5.1979        61.6071        106.301        99.5064        99.0987         5.1979
     11988.0000        -999.25        -999.25         4.8125        71.8966       107.9289        98.3886        99.5064         4.8125
     11988.5000        -999.25        -999.25         4.5709        78.9655       111.6166        94.4516        98.3886         4.5709
     11989.0000        -999.25        -999.25         4.9863        79.6552        115.987        94.4798        94.4516         4.9863
     11989.5000        -999.25        -999.25         4.7124        76.3793        121.841        96.0656        94.4798         4.7124
     11990.0000        -999.25        -999.25         4.0343        73.2759       125.9794         88.807        96.0656         4.0343
     11990.5000        -999.25        -999.25         6.5683        70.6897       117.1946        76.6487         88.807         6.5683
     11991.0000        -999.25        -999.25        14.8073        66.7857        96.3527        66.7915        76.6487        14.8073
     11991.5000        -999.25        -999.25        19.5038        68.5714         75.713         60.946        66.7915        19.5038
     11992.0000        -999.25        -999.25        13.6077        73.7931        63.9517        59.5549         60.946        13.6077
     11992.5000        -999.25        -999.25           9.68        70.6897        63.0312        64.9163        59.5549           9.68
     11993.0000        -999.25        -999.25        10.5696        59.6429        73.8498        75.1189        64.9163        10.5696
     11993.5000        -999.25        -999.25         6.6759        47.1757        86.9836        87.7156        75.1189         6.6759
     11994.0000        -999.25        -999.25         4.1976        43.8476        99.2136        98.0296        87.7156         4.1976
     11994.5000        -999.25        -999.25         5.3266        49.8246        111.463        98.1423        98.0296         5.3266
     11995.0000        -999.25        -999.25        12.7453        53.5714       113.8425        89.4534        98.1423        12.7453
