#------------------------------------------------------------------------------
# Created by    : mgeorge
# Created on    : 07/19/2023 10:29:38
#------------------------------------------------------------------------------
~Version Information Section
VERS.           2.0     :   CWLS log ASCII Standard - VERSION 2.0
WRAP.           NO      :   One line per depth step
~Well Information Section
#MNEM       .UNIT                                         VALUE :DESCRIPTION
#------------------------------------------------------------------------------
STRT        .FT                                           11964 :START DEPTH
STOP        .FT                                         16416.5 :STOP DEPTH
STEP        .FT                                             0.5 :STEP      
NULL        .                                           -999.25 :NULL      
COMP        .              ADVANCE ENERGY PARTNERS HAT MESA LLC :COMPANY   
WELL        .                                  DAGGER STATE SWD :WELL      
FLD         .                                               SWD :FIELD     
LOC         .                                                   :LOCATION  
CNTY        .                                               LEA :LOCATION  
STAT        .                                        NEW MEXICO :STATE     
CTRY        .                                     UNITED STATES :COUNTRY   
SRVC        .                                                   :SERVICE COMPANY
DATE        .                              1/27/2023 5:38:29 PM :LOG DATE  
API         .                                    30025458150000 :API NUMBER
UWI         .                                    30025458150000 :UNIQUE WELL ID
XCOORD      .                                  990031.214140587 :SURFACE X 
YCOORD      .                                  1027167.67164026 :SURFACE Y 
LAT         .                                        32.4498049 :LATITUDE  
LON         .                                      -103.6069526 :LONGITUDE 
ELEV        .FT                                            3803 :ELEVATION VALUE
ELEV_TYPE   .                                                KB :ELEVATION REFERENCE TYPE
~Curve Information Section
#MNEM       .UNIT                                      API CODE :CURVE DESCRIPTION
#------------------------------------------------------------------------------
DEPT        .FT                                                 :DEPTH     
AF90        .OHMM                                               :AF90      
AFCO90      .MM/M                                               :Array Induction Four Foot Conductivity A90 {F13.4}
AT90        .OHMM                                               :AT90      
ATCO90      .MM/M                                               :ATCO90    
ATRT        .OHMM                                               :ATRT      
CNTC        .HZ                                                 :CNTC      
ECGR        .GAPI                                               :ECGR      
EHGR        .GAPI                                               :EHGR      
GAMMA       .UNITLESS                                           :GAMMA     
GR          .GAPI                                               :GR        
GR_EDTC     .GAPI                                               :GR_EDTC   
HCGR        .GAPI                                               :HCGR      
HGR         .GAPI                                               :HGR       
HNPO        .CFCF                                               :HNPO      
HSGR        .GAPI                                               :HSGR      
ILD         .                                                   :ILD       
MCGR        .GAPI                                               :MCGR      
NPHI        .CFCF                                               :Nphi      
NPOR        .CFCF                                               :NPOR      
NPOR_LIM    .CFCF                                               :NPOR_LIM  
PE          .                                                   :PE        
PEF         .                                                   :PEF       
PEF8        .                                                   :PEF8      
PEFZ        .                                                   :PEFZ      
RHO8        .G/C3                                               :RHO8      
RHOB        .                                                   :RHOB      
RHOZ        .G/C3                                               :RHOZ      
TNPH        .CFCF                                               :TNPH      
TNPH_LIM    .CFCF                                               :TNPH_LIM  
~A        DEPTH           AF90         AFCO90           AT90         ATCO90           ATRT           CNTC           ECGR           EHGR          GAMMA             GR        GR_EDTC           HCGR            HGR           HNPO           HSGR            ILD           MCGR           NPHI           NPOR       NPOR_LIM             PE            PEF           PEF8           PEFZ           RHO8           RHOB           RHOZ           TNPH       TNPH_LIM
# ...
     13845.0000        -999.25        -999.25        -999.25        -999.25        -999.25       6168.215         44.141          40.69        -999.25         43.378         43.708         22.523         39.987          0.021         44.011        -999.25         19.837          0.014          0.027          0.027        -999.25        -999.25          3.721          3.892           2.67        2.66554          2.665          0.021          0.021
     13845.5000        -999.25        -999.25        -999.25        -999.25        -999.25        6133.49         37.835         36.407        -999.25         37.181         39.194          19.56         35.778          0.026         37.912        -999.25         17.231          0.013          0.022          0.022        -999.25        -999.25          4.044          3.988          2.688        2.67922          2.679          0.021          0.021
     13846.0000        -999.25        -999.25        -999.25        -999.25        -999.25       6137.389         38.214         36.407        -999.25         37.553         38.187         17.722         35.777          0.025         34.305        -999.25         15.672          0.011          0.019          0.019        -999.25        -999.25          4.211          4.055          2.707        2.69803          2.698          0.019          0.019
     13846.5000        -999.25        -999.25        -999.25        -999.25        -999.25       6172.556         38.928         42.059        -999.25         38.255          39.46         16.925         41.332          0.011         33.282        -999.25         15.075           0.01          0.012          0.012        -999.25        -999.25          4.023          4.078          2.724        2.71684          2.717          0.018          0.018
     13847.0000        -999.25        -999.25        -999.25        -999.25        -999.25       6104.417         41.188         38.549        -999.25         40.476         41.502         15.857         37.883          0.023         33.012        -999.25         14.154          0.011          0.019          0.019        -999.25        -999.25          3.912          4.038           2.71        2.71684          2.717          0.019          0.019
     13847.5000        -999.25        -999.25        -999.25        -999.25        -999.25       5909.608         41.047         43.188        -999.25         40.338         41.389         17.442         42.442          0.013         34.537        -999.25         15.716          0.012          0.017          0.017        -999.25        -999.25          4.104          4.043          2.736        2.71684          2.717          0.023          0.023
     13848.0000        -999.25        -999.25        -999.25        -999.25        -999.25       5440.548         44.854         41.404        -999.25         44.079         52.208         20.342         40.688          0.015           40.5        -999.25         18.422          0.015           0.02           0.02        -999.25        -999.25          4.141          4.043          2.698        2.70145          2.701          0.029          0.029
     13848.5000        -999.25        -999.25        -999.25        -999.25        -999.25       4855.349         62.247          49.97        -999.25         61.171          72.36         31.795         49.106          0.031         59.838        -999.25         29.066          0.037          0.034          0.034        -999.25        -999.25          4.116              4          2.699        2.67922          2.679          0.045          0.045
     13849.0000        -999.25        -999.25        -999.25        -999.25        -999.25       4264.854         88.066         94.765        -999.25         86.543         93.405          43.12         93.127          0.075         82.859        -999.25         39.531          0.093          0.082          0.082        -999.25        -999.25          3.849          3.883           2.62        2.65186          2.651          0.072          0.072
     13849.5000        -999.25        -999.25        -999.25        -999.25        -999.25       3757.832         101.51        118.859        -999.25         99.755        103.841         49.686        116.805          0.162         97.573        -999.25         45.595          0.142          0.161          0.161        -999.25        -999.25          3.812          3.776          2.624        2.63305          2.632          0.115          0.115
     13850.0000        -999.25        -999.25        -999.25        -999.25        -999.25       3363.399         99.941         90.303        -999.25         98.213         97.371         50.922         88.742          0.154         95.366        -999.25         47.019          0.163          0.166          0.166        -999.25        -999.25           3.48          3.693          2.631        2.62963           2.63          0.148          0.148
     13850.5000        -999.25        -999.25        -999.25        -999.25        -999.25        3218.02         87.426         90.661        -999.25         85.914         87.786         45.124         89.093          0.164         84.641        -999.25         41.743          0.158          0.155          0.155        -999.25        -999.25          3.684          3.668          2.633        2.63647          2.636          0.154          0.154
     13851.0000        -999.25        -999.25        -999.25        -999.25        -999.25       3246.854         83.856         81.856        -999.25         82.407          77.49         42.178         80.441          0.136         75.424        -999.25         39.204          0.147          0.153          0.153        -999.25        -999.25          3.682          3.672           2.65        2.63989           2.64          0.149          0.149
     13851.5000        -999.25        -999.25        -999.25        -999.25        -999.25       3275.206          82.31         79.595        -999.25         80.887         81.862         40.997          78.22          0.131          71.37        -999.25         38.181          0.138          0.133          0.133        -999.25        -999.25          3.721          3.702          2.632        2.63647          2.637          0.138          0.138
     13852.0000        -999.25        -999.25        -999.25        -999.25        -999.25       3290.494         82.689         86.022        -999.25          81.26         86.592         42.415         84.535          0.127         73.689        -999.25         39.466          0.132           0.13           0.13        -999.25        -999.25          3.711          3.735          2.636        2.63305          2.634          0.132          0.132
     13852.5000        -999.25        -999.25        -999.25        -999.25        -999.25       3339.996         83.522         82.451        -999.25         82.078         90.043         47.985         81.026          0.125         77.546        -999.25         44.805          0.126           0.13           0.13        -999.25        -999.25          3.785          3.752          2.629        2.62963          2.629          0.127          0.127
     13853.0000        -999.25        -999.25        -999.25        -999.25        -999.25       3333.298         83.284         82.094        -999.25         81.844         83.201         52.574         80.675          0.122         82.378        -999.25          49.15          0.129          0.126          0.126        -999.25        -999.25          3.807          3.728          2.621        2.62621          2.625          0.122          0.122
     13853.5000        -999.25        -999.25        -999.25        -999.25        -999.25       3367.086           84.8         85.306        -999.25         83.335          80.46         53.041         83.831          0.116          82.06        -999.25         49.607          0.126          0.116          0.116        -999.25        -999.25          3.641          3.706          2.632        2.62279          2.622          0.122          0.122
