#------------------------------------------------------------------------------
# Created by    : mgeorge
# Created on    : 07/19/2023 10:29:38
#------------------------------------------------------------------------------
~Version Information Section
VERS.           2.0     :   CWLS log ASCII Standard - VERSION 2.0
WRAP.           NO      :   One line per depth step
~Well Information Section
#MNEM       .UNIT                                         VALUE :DESCRIPTION
#------------------------------------------------------------------------------
STRT        .FT                                           11964 :START DEPTH
STOP        .FT                                         16416.5 :STOP DEPTH
STEP        .FT                                             0.5 :STEP      
NULL        .                                           -999.25 :NULL      
COMP        .              ADVANCE ENERGY PARTNERS HAT MESA LLC :COMPANY   
WELL        .                                  DAGGER STATE SWD :WELL      
FLD         .                                               SWD :FIELD     
LOC         .                                                   :LOCATION  
CNTY        .                                               LEA :LOCATION  
STAT        .                                        NEW MEXICO :STATE     
CTRY        .                                     UNITED STATES :COUNTRY   
SRVC        .                                                   :SERVICE COMPANY
DATE        .                              1/27/2023 5:38:29 PM :LOG DATE  
API         .                                    30025458150000 :API NUMBER
UWI         .                                    30025458150000 :UNIQUE WELL ID
XCOORD      .                                  990031.214140587 :SURFACE X 
YCOORD      .                                  1027167.67164026 :SURFACE Y 
LAT         .                                        32.4498049 :LATITUDE  
LON         .                                      -103.6069526 :LONGITUDE 
ELEV        .FT                                            3803 :ELEVATION VALUE
ELEV_TYPE   .                                                KB :ELEVATION REFERENCE TYPE
~Curve Information Section
#MNEM       .UNIT                                      API CODE :CURVE DESCRIPTION
#------------------------------------------------------------------------------
DEPT        .FT                                                 :DEPTH     
AF90        .OHMM                                               :AF90      
AFCO90      .MM/M                                               :Array Induction Four Foot Conductivity A90 {F13.4}
AT90        .OHMM                                               :AT90      
ATCO90      .MM/M                                               :ATCO90    
ATRT        .OHMM                                               :ATRT      
CNTC        .HZ                                                 :CNTC      
ECGR        .GAPI                                               :ECGR      
EHGR        .GAPI                                               :EHGR      
GAMMA       .UNITLESS                                           :GAMMA     
GR          .GAPI                                               :GR        
GR_EDTC     .GAPI                                               :GR_EDTC   
HCGR        .GAPI                                               :HCGR      
HGR         .GAPI                                               :HGR       
HNPO        .CFCF                                               :HNPO      
HSGR        .GAPI                                               :HSGR      
ILD         .                                                   :ILD       
MCGR        .GAPI                                               :MCGR      
NPHI        .CFCF                                               :Nphi      
NPOR        .CFCF                                               :NPOR      
NPOR_LIM    .CFCF                                               :NPOR_LIM  
PE          .                                                   :PE        
PEF         .                                                   :PEF       
PEF8        .                                                   :PEF8      
PEFZ        .                                                   :PEFZ      
RHO8        .G/C3                                               :RHO8      
RHOB        .                                                   :RHOB      
RHOZ        .G/C3                                               :RHOZ      
TNPH        .CFCF                                               :TNPH      
TNPH_LIM    .CFCF                                               :TNPH_LIM  
~A        DEPTH           AF90         AFCO90           AT90         ATCO90           ATRT           CNTC           ECGR           EHGR          GAMMA             GR        GR_EDTC           HCGR            HGR           HNPO           HSGR            ILD           MCGR           NPHI           NPOR       NPOR_LIM             PE            PEF           PEF8           PEFZ           RHO8           RHOB           RHOZ           TNPH       TNPH_LIM
# ...
     16347.0000        -999.25        -999.25        -999.25        -999.25        -999.25       2761.385        387.087        389.108        -999.25        380.396         321.17           55.2        382.382          0.209        303.874        -999.25         48.548          0.204            0.2            0.2        -999.25        -999.25          4.878          4.915          2.553        2.55268          2.552          0.199          0.199
     16347.5000        -999.25        -999.25        -999.25        -999.25        -999.25       2753.899        387.087        389.108        -999.25        380.396         321.17           55.2        382.382          0.193        303.874        -999.25         48.548          0.199          0.187          0.187        -999.25        -999.25          4.956          4.931          2.547        2.55097           2.55          0.196          0.196
     16348.0000        -999.25        -999.25        -999.25        -999.25        -999.25       2748.284        387.087        389.108        -999.25        380.396         321.17           55.2        382.382          0.202        303.874        -999.25         48.548          0.199            0.2            0.2        -999.25        -999.25           4.95          4.936          2.549        2.55097          2.551          0.195          0.195
     16348.5000        -999.25        -999.25        -999.25        -999.25        -999.25       2752.595        387.087        389.108        -999.25        380.396         321.17           55.2        382.382          0.199        303.874        -999.25         48.548          0.199          0.196          0.196        -999.25        -999.25          4.852          4.909          2.556        2.54926          2.549          0.193          0.193
     16349.0000        -999.25        -999.25        -999.25        -999.25        -999.25       2738.566        387.087        389.108        -999.25        380.396         321.17           55.2        382.382          0.199        303.874        -999.25         48.548          0.202          0.192          0.192        -999.25        -999.25          4.877          4.889          2.551        2.54926          2.548           0.19           0.19
     16349.5000        -999.25        -999.25        -999.25        -999.25        -999.25       2758.715        387.087        389.108        -999.25        380.396         321.17           55.2        382.382           0.19        303.874        -999.25         48.548          0.202          0.189          0.189        -999.25        -999.25          4.836          4.881          2.552        2.54755          2.548          0.191          0.191
     16350.0000        -999.25        -999.25        -999.25        -999.25        -999.25       2769.916        387.087        389.108        -999.25        380.396         321.17           55.2        382.382          0.193        303.874        -999.25         48.548          0.201          0.193          0.193        -999.25        -999.25          4.933          4.901          2.553        2.55439          2.554          0.192          0.192
     16350.5000        -999.25        -999.25        -999.25        -999.25        -999.25       2785.453        387.087        389.108        -999.25        380.396         321.17           55.2        382.382          0.197        303.874        -999.25         48.548          0.201          0.192          0.192        -999.25        -999.25          4.895          4.922          2.558        2.55952          2.559          0.194          0.194
     16351.0000        -999.25        -999.25        -999.25        -999.25        -999.25       2785.204        387.087        389.108        -999.25        380.396         321.17           55.2        382.382        -999.25        303.874        -999.25         48.548          0.201      -2546.697      -2546.697        -999.25        -999.25          4.917          4.952          2.557        2.55781          2.558        -2546.7        -2546.7
     16351.5000        -999.25        -999.25        -999.25        -999.25        -999.25       2785.204        387.087        389.108        -999.25        380.396         321.17           55.2        382.382        -999.25        303.874        -999.25         48.548          0.201        -999.25        -999.25        -999.25        -999.25          5.024          4.989          2.559         2.5561          2.556        -999.25        -999.25
     16352.0000        -999.25        -999.25        -999.25        -999.25        -999.25       2785.204        387.087        389.108        -999.25        380.396         321.17           55.2        382.382        -999.25        303.874        -999.25         48.548          0.201        -999.25        -999.25        -999.25        -999.25          5.012          5.028          2.558         2.5561          2.556        -999.25        -999.25
     16352.5000        -999.25        -999.25        -999.25        -999.25        -999.25       2785.204        387.087        389.108        -999.25        380.396         321.17           55.2        382.382        -999.25        303.874        -999.25         48.548          0.201        -999.25        -999.25        -999.25        -999.25          5.037           5.05          2.563        2.55952          2.559        -999.25        -999.25
     16353.0000        -999.25        -999.25        -999.25        -999.25        -999.25       2785.204        387.087        389.108        -999.25        380.396         321.17           55.2        382.382        -999.25        303.874        -999.25         48.548          0.201        -999.25        -999.25        -999.25        -999.25          5.057          5.067           2.56        2.56465          2.564        -999.25        -999.25
     16353.5000        -999.25        -999.25        -999.25        -999.25        -999.25       2785.204        387.087        389.108        -999.25        380.396         321.17           55.2        382.382        -999.25        303.874        -999.25         48.548          0.201        -999.25        -999.25        -999.25        -999.25          5.091          5.055           2.56        2.55952          2.559        -999.25        -999.25
     16354.0000        -999.25        -999.25        -999.25        -999.25        -999.25       2785.204        387.087        389.108        -999.25        380.396         321.17           55.2        382.382        -999.25        303.874        -999.25         48.548          0.201        -999.25        -999.25        -999.25        -999.25          5.026          5.037           2.56         2.5561          2.556        -999.25        -999.25
     16354.5000        -999.25        -999.25        -999.25        -999.25        -999.25       2785.204        387.087        389.108        -999.25        380.396         321.17           55.2        382.382        -999.25        303.874        -999.25         48.548          0.201        -999.25        -999.25        -999.25        -999.25          4.977          5.015          2.553        2.55097          2.552        -999.25        -999.25
     16355.0000        -999.25        -999.25        -999.25        -999.25        -999.25       2785.204        387.087        389.108        -999.25        380.396         321.17           55.2        382.382        -999.25        303.874        -999.25         48.548          0.201        -999.25        -999.25        -999.25        -999.25          5.017          5.022           2.55        2.55439          2.555        -999.25        -999.25
     16355.5000        -999.25        -999.25        -999.25        -999.25        -999.25       2785.204        387.087        389.108        -999.25        380.396         321.17           55.2        382.382        -999.25        303.874        -999.25         48.548          0.201        -999.25        -999.25        -999.25        -999.25          5.061          5.047          2.562        2.56123          2.561        -999.25        -999.25
