#------------------------------------------------------------------------------
# Created by    : mgeorge
# Created on    : 07/19/2023 10:29:21
#------------------------------------------------------------------------------
~Version Information Section
VERS.           2.0     :   CWLS log ASCII Standard - VERSION 2.0
WRAP.           NO      :   One line per depth step
~Well Information Section
#MNEM       .UNIT                                         VALUE :DESCRIPTION
#------------------------------------------------------------------------------
STRT        .FT                                             170 :START DEPTH
STOP        .FT                                            8880 :STOP DEPTH
STEP        .FT                                             0.5 :STEP      
NULL        .                                           -999.25 :NULL      
COMP        .                                       OXY USA INC :COMPANY   
WELL        .                             COVINGTON `A` FEDERAL :WELL      
FLD         .                                     RED TANK WEST :FIELD     
LOC         .                                                   :LOCATION  
CNTY        .                                               LEA :LOCATION  
STAT        .                                        NEW MEXICO :STATE     
CTRY        .                                     UNITED STATES :COUNTRY   
SRVC        .                                                   :SERVICE COMPANY
DATE        .                              8/3/2022 10:24:51 AM :LOG DATE  
API         .                                    30025349870000 :API NUMBER
UWI         .                                    30025349870000 :UNIQUE WELL ID
XCOORD      .                                  979541.866465641 :SURFACE X 
YCOORD      .                                  991455.566234473 :SURFACE Y 
LAT         .                                        32.3508526 :LATITUDE  
LON         .                                      -103.6374947 :LONGITUDE 
ELEV        .FT                                            3773 :ELEVATION VALUE
ELEV_TYPE   .                                                KB :ELEVATION REFERENCE TYPE
~Curve Information Section
#MNEM       .UNIT                                      API CODE :CURVE DESCRIPTION
#------------------------------------------------------------------------------
DEPT        .FT                                                 :DEPTH     
AF90        .OHMM                                               :AF90      
GR          .GAPI                                               :GR        
ILD         .                                                   :ILD       
NPHI        .                                                   :Nphi      
PE          .                                                   :PE        
PEFZ        .BE                                                 :PEFZ      
RHOB        .                                                   :RHOB      
RHOZ        .G/C3                                               :RHOZ      
TNPH        .V/V                                                :TNPH      
~A        DEPTH           AF90             GR            ILD           NPHI             PE           PEFZ           RHOB           RHOZ           TNPH
# ...
      6344.5000         2.2339        69.0667         2.2339         0.1749         2.4568         2.4568         2.4326         2.4326         0.1749
      6345.0000         2.2339        70.2703         2.2339         0.1776         2.4431         2.4431         2.4258         2.4258         0.1776
      6345.5000         2.2339        73.1081         2.2339         0.1768         2.4428         2.4428         2.4171         2.4171         0.1768
      6346.0000         2.2339        76.0811         2.2339         0.1744         2.4425         2.4425         2.4104         2.4104         0.1744
      6346.5000         2.2339        76.0811         2.2339         0.1787         2.4958         2.4958         2.4056         2.4056         0.1787
      6347.0000         2.2339        75.9459         2.2339         0.1776         2.5088         2.5088         2.4056         2.4056         0.1776
      6347.5000         2.2202             75         2.2202         0.1723         2.4818         2.4818         2.4123         2.4123         0.1723
      6348.0000         2.2066        73.9189         2.2066         0.1667         2.4413         2.4413         2.4217         2.4217         0.1667
      6348.5000         2.2476        72.8378         2.2476         0.1619         2.4544         2.4544         2.4217         2.4217         0.1619
      6349.0000         2.2476        72.1622         2.2476         0.1586         2.4674         2.4674         2.4223         2.4223         0.1586
      6349.5000         2.2476        71.3513         2.2476         0.1559         2.4805         2.4805         2.4243         2.4243         0.1559
      6350.0000         2.2476        70.2703         2.2476         0.1603         2.4935         2.4935         2.4264         2.4264         0.1603
      6350.5000         2.2476        71.3513         2.2476          0.164           2.52           2.52         2.4291         2.4291          0.164
      6351.0000         2.2615        72.5676         2.2615          0.168         2.5333         2.5333         2.4291         2.4291          0.168
      6351.5000         2.2754         72.027         2.2754         0.1717         2.4933         2.4933         2.4304         2.4304         0.1717
      6352.0000         2.2754        69.0667         2.2754          0.176           2.44           2.44         2.4304         2.4304          0.176
      6352.5000         2.2202        67.3333         2.2202         0.1779            2.4            2.4         2.4331         2.4331         0.1779
      6353.0000         2.2066             68         2.2066         0.1811            2.4            2.4         2.4365         2.4365         0.1811
      6353.5000         2.2066             68         2.2066          0.184         2.4133         2.4133         2.4399         2.4399          0.184
      6354.0000         2.2066        67.3333         2.2066         0.1864         2.3867         2.3867         2.4432         2.4432         0.1864
      6354.5000         2.2066        66.5333         2.2066         0.1856         2.3867         2.3867         2.4493         2.4493         0.1856
      6355.0000         2.2066        69.3333         2.2066         0.1784            2.4            2.4          2.452          2.452         0.1784
      6355.5000         2.2339        72.7027         2.2339         0.1795         2.3867         2.3867         2.4547         2.4547         0.1795
      6356.0000         2.2754        75.9459         2.2754         0.1757         2.3733         2.3733         2.4573         2.4573         0.1757
      6356.5000         2.3035        76.4865         2.3035         0.1773            2.4            2.4         2.4607         2.4607         0.1773
      6357.0000         2.3464        74.0541         2.3464         0.1787         2.4133         2.4133         2.4653         2.4653         0.1787
      6357.5000         2.4196        72.5676         2.4196         0.1803         2.4133         2.4133         2.4687         2.4687         0.1803
      6358.0000         2.4196        72.4324         2.4196         0.1675         2.4267         2.4267          2.474          2.474         0.1675
      6358.5000         2.4196        72.7027         2.4196         0.1637         2.5067         2.5067         2.4727         2.4727         0.1637
      6359.0000         2.3464        75.1351         2.3464         0.1632           2.52           2.52         2.4667         2.4667         0.1632
      6359.5000         2.2615        78.3784         2.2615         0.1595         2.5067         2.5067         2.4613         2.4613         0.1595
      6360.0000         2.1398        79.8649         2.1398         0.1543         2.5067         2.5067          2.454          2.454         0.1543
      6360.5000         2.0247        79.8649         2.0247         0.1549         2.5069         2.5069          2.448          2.448         0.1549
      6361.0000         1.9152        78.3784         1.9152         0.1565         2.5206         2.5206         2.4426         2.4426         0.1565
      6361.5000         1.8684        76.4865         1.8684         0.1645         2.4808         2.4808         2.4365         2.4365         0.1645
      6362.0000         1.8916        74.5946         1.8916         0.1744          2.441          2.441         2.4284         2.4284         0.1744
      6362.5000         1.9271        72.5676         1.9271         0.1811         2.4146         2.4146         2.4223         2.4223         0.1811
      6363.0000         1.9632        70.8108         1.9632         0.1803         2.4283         2.4283         2.4223         2.4223         0.1803
      6363.5000         2.0247        69.0667         2.0247         0.1771         2.4419         2.4419         2.4223         2.4223         0.1771
      6364.0000         2.0751        67.0667         2.0751         0.1728         2.4422         2.4422         2.4297         2.4297         0.1728
      6364.5000         2.0751        65.0667         2.0751         0.1699         2.4559         2.4559         2.4419         2.4419         0.1699
      6365.0000         2.0751        64.6667         2.0751         0.1747         2.5099         2.5099         2.4392         2.4392         0.1747
      6365.5000         2.0498           65.6         2.0498         0.1837         2.5237         2.5237         2.4311         2.4311         0.1837
      6366.0000         2.0123        66.5333         2.0123         0.1944         2.5106         2.5106          2.423          2.423         0.1944
      6366.5000         1.9511        67.0667         1.9511         0.2077         2.4975         2.4975         2.4149         2.4149         0.2077
      6367.0000         1.8684        67.7333         1.8684         0.2096         2.4844         2.4844         2.4169         2.4169         0.2096
      6367.5000         1.8454        69.0667         1.8454         0.2091         2.5251         2.5251         2.4203         2.4203         0.2091
      6368.0000         1.8114        69.4667         1.8114         0.2059         2.5793         2.5793         2.4142         2.4142         0.2059
      6368.5000         1.8003           65.6         1.8003         0.2019         2.5797         2.5797         2.4081         2.4081         0.2019
      6369.0000         1.8454        62.2667         1.8454         0.1971         2.5262         2.5262          2.402          2.402         0.1971
      6369.5000         1.8916        59.3333         1.8916         0.1925         2.4725         2.4725          2.394          2.394         0.1925
      6370.0000         1.9511           63.6         1.9511         0.1885         2.4863         2.4863          2.388          2.388         0.1885
      6370.5000         2.1398        76.2162         2.1398         0.1856          2.527          2.527          2.382          2.382         0.1856
