#------------------------------------------------------------------------------
# Created by    : mgeorge
# Created on    : 07/19/2023 10:29:23
#------------------------------------------------------------------------------
~Version Information Section
VERS.           2.0     :   CWLS log ASCII Standard - VERSION 2.0
WRAP.           NO      :   One line per depth step
~Well Information Section
#MNEM       .UNIT                                         VALUE :DESCRIPTION
#------------------------------------------------------------------------------
STRT        .FT                                             166 :START DEPTH
STOP        .FT                                           14648 :STOP DEPTH
STEP        .FT                                             0.5 :STEP      
NULL        .                                           -999.25 :NULL      
COMP        .                     DEVON ENERGY PRODUCTION CO LP :COMPANY   
WELL        .                          RIO BLANCO 4 FEDERAL COM :WELL      
FLD         .                               BELL LAKE NORTHEAST :FIELD     
LOC         .                                                   :LOCATION  
CNTY        .                                               LEA :LOCATION  
STAT        .                                        NEW MEXICO :STATE     
CTRY        .                                     UNITED STATES :COUNTRY   
SRVC        .                                                   :SERVICE COMPANY
DATE        .                               8/4/2022 3:29:17 PM :LOG DATE  
API         .                                    30025364250000 :API NUMBER
UWI         .                                    30025364250000 :UNIQUE WELL ID
XCOORD      .                                  1030633.57202521 :SURFACE X 
YCOORD      .                                  982685.374946431 :SURFACE Y 
LAT         .                                        32.3308251 :LATITUDE  
LON         .                                      -103.4713531 :LONGITUDE 
ELEV        .FT                                            3422 :ELEVATION VALUE
ELEV_TYPE   .                                                KB :ELEVATION REFERENCE TYPE
~Curve Information Section
#MNEM       .UNIT                                      API CODE :CURVE DESCRIPTION
#------------------------------------------------------------------------------
DEPT        .FT                                                 :DEPTH     
AF90        .OHMM                                               :AF90      
ASF90       .OHMM                                               :ARRAY INDUCTION FOUR FOOT RESISTIVITY A90
DRESWS      .OHMM                                               :DEEP INDUCTION RESISTIVITY
GR          .GAPI                                               :GR        
GRR         .GAPI                                               :GRR       
GRS         .GAPI                                               :GRS       
GRWS        .GAPI                                               :GAMMA RAY FROM SONIC LOG
RLA5        .OHMM                                               :RLA5      
~A        DEPTH           AF90          ASF90         DRESWS             GR            GRR            GRS           GRWS           RLA5
# ...
     13972.0000        -999.25        -999.25        285.211        18.2456        18.2967        19.4812        19.4812        285.211
     13972.5000        -999.25        -999.25         435.04        13.1579        21.9344        19.8675        19.8675         435.04
     13973.0000        -999.25        -999.25       2839.408        12.1053        21.1585        17.1362        17.1362       2839.408
     13973.5000        -999.25        -999.25       22002.05         14.386        17.9862        12.9145        12.9145       22002.05
     13974.0000        -999.25        -999.25       4065.246        18.7719        16.0641        11.9301        11.9301       4065.246
     13974.5000        -999.25        -999.25       848.3052        20.7407        15.5693        12.9969        12.9969       848.3052
     13975.0000        -999.25        -999.25       327.4081        20.5556         20.172        15.1219        15.1219       327.4081
     13975.5000        -999.25        -999.25       884.7714        18.2456         21.425        15.1291        15.1291       884.7714
     13976.0000        -999.25        -999.25       7001.753        15.0877        20.2155        13.4717        13.4717       7001.753
     13976.5000        -999.25        -999.25       545.4256        13.3333         19.009        11.5013        11.5013       545.4256
     13977.0000        -999.25        -999.25       1232.239        13.5088        19.5983         9.5375         9.5375       1232.239
     13977.5000        -999.25        -999.25       4277.908         15.614        18.8558         8.6478         8.6478       4277.908
     13978.0000        -999.25        -999.25       655.2722        17.8947         18.394         9.8215         9.8215       655.2722
     13978.5000        -999.25        -999.25       125.5223             20        21.4474        14.6108        14.6108       125.5223
     13979.0000        -999.25        -999.25       859.8947        20.7407         25.809        18.0901        18.0901       859.8947
     13979.5000        -999.25        -999.25       419.9691        19.4737        26.9131         20.362         20.362       419.9691
     13980.0000        -999.25        -999.25       636.1668        17.5439         20.985        18.3356        18.3356       636.1668
     13980.5000        -999.25        -999.25       12850.82        15.7895        17.3817        13.8232        13.8232       12850.82
     13981.0000        -999.25        -999.25       37735.17        15.7895        15.3585        10.3472        10.3472       37735.17
     13981.5000        -999.25        -999.25       3566.964        18.0702        16.5224         9.9529         9.9529       3566.964
     13982.0000        -999.25        -999.25       331.0064        20.9259        18.2057         11.656         11.656       331.0064
     13982.5000        -999.25        -999.25        458.096        22.5926        18.9045        13.4459        13.4459        458.096
     13983.0000        -999.25        -999.25       1386.275        20.3704        17.7078        13.7153        13.7153       1386.275
     13983.5000        -999.25        -999.25        10369.5        16.6667         15.787        12.5318        12.5318        10369.5
     13984.0000        -999.25        -999.25       3136.765        15.7895        17.1317        11.8851        11.8851       3136.765
     13984.5000        -999.25        -999.25       528.9045        18.4211        19.6698        14.4182        14.4182       528.9045
     13985.0000        -999.25        -999.25       218.5753        22.2222        22.6199        18.0081        18.0081       218.5753
     13985.5000        -999.25        -999.25        486.661        24.2593        25.8697        21.2016        21.2016        486.661
     13986.0000        -999.25        -999.25       206.9746        26.1111        29.4495        22.0311        22.0311       206.9746
     13986.5000        -999.25        -999.25       196.9747        28.7037        29.4442        22.3138        22.3138       196.9747
     13987.0000        -999.25        -999.25       252.5527        28.5185        28.0248        20.9458        20.9458       252.5527
     13987.5000        -999.25        -999.25       642.5417        25.3704        23.4471        17.9852        17.9852       642.5417
     13988.0000        -999.25        -999.25        42539.2        20.5556        15.9426        14.8096        14.8096        42539.2
     13988.5000        -999.25        -999.25       8231.686        17.0175        15.3286        11.5706        11.5706       8231.686
     13989.0000        -999.25        -999.25       3287.094        16.3158        16.2268        10.7411        10.7411       3287.094
     13989.5000        -999.25        -999.25       242.2031        18.4211        18.7471        12.1639        12.1639       242.2031
     13990.0000        -999.25        -999.25       624.6512        19.8246        21.8478        15.3222        15.3222       624.6512
     13990.5000        -999.25        -999.25       2618.719        18.9474        20.0128        16.5481        16.5481       2618.719
     13991.0000        -999.25        -999.25        4721.58        17.3684        18.1107        15.9632        15.9632        4721.58
     13991.5000        -999.25        -999.25       2136.979         17.193        17.5205        15.6282        15.6282       2136.979
     13992.0000        -999.25        -999.25       203.2563        16.1404        19.8671        17.0125        17.0125       203.2563
     13992.5000        -999.25        -999.25       806.7867        13.8596        23.0762        18.5413        18.5413       806.7867
     13993.0000        -999.25        -999.25       2452.876        14.9123        20.5667        18.6875        18.6875       2452.876
     13993.5000        -999.25        -999.25       357.9803        19.2982        18.5768        17.3819        17.3819       357.9803
     13994.0000        -999.25        -999.25       245.2018        21.6667        17.4094        16.9021        16.9021       245.2018
     13994.5000        -999.25        -999.25       602.5663        22.2222        18.1192        16.5665        16.5665       602.5663
     13995.0000        -999.25        -999.25       2481.224        20.3704        19.5931        15.1665        15.1665       2481.224
     13995.5000        -999.25        -999.25       607.0612        19.2982        16.7313        13.5918        13.5918       607.0612
     13996.0000        -999.25        -999.25       1927.662        17.8947        15.4364        13.3877        13.3877       1927.662
     13996.5000        -999.25        -999.25       930.2864        16.8421        14.7675        14.3847        14.3847       930.2864
     13997.0000        -999.25        -999.25       777.1291        15.2632        15.6753         15.009         15.009       777.1291
     13997.5000        -999.25        -999.25       591.0452        14.2105        17.4105        16.3074        16.3074       591.0452
     13998.0000        -999.25        -999.25       212.2147        15.0877        20.7866        18.2192        18.2192       212.2147
     13998.5000        -999.25        -999.25       401.9074        18.0702        23.7951        18.9666        18.9666       401.9074
     13999.0000        -999.25        -999.25       1968.054        22.4074        24.5233        18.0591        18.0591       1968.054
     13999.5000        -999.25        -999.25       348.2621             25        24.7648        16.9251        16.9251       348.2621
     14000.0000        -999.25        -999.25       296.1555        24.8148        22.9154        17.1521        17.2963       296.1555
     14000.5000        -999.25        -999.25        724.548        23.1481        18.6955        17.2963        15.8625        724.548
     14001.0000        -999.25        -999.25       1276.384        21.1111        17.1924        15.8625         13.541       1276.384
