#------------------------------------------------------------------------------
# Created by    : mgeorge
# Created on    : 07/19/2023 10:29:21
#------------------------------------------------------------------------------
~Version Information Section
VERS.           2.0     :   CWLS log ASCII Standard - VERSION 2.0
WRAP.           NO      :   One line per depth step
~Well Information Section
#MNEM       .UNIT                                         VALUE :DESCRIPTION
#------------------------------------------------------------------------------
STRT        .FT                                             170 :START DEPTH
STOP        .FT                                            8880 :STOP DEPTH
STEP        .FT                                             0.5 :STEP      
NULL        .                                           -999.25 :NULL      
COMP        .                                       OXY USA INC :COMPANY   
WELL        .                             COVINGTON `A` FEDERAL :WELL      
FLD         .                                     RED TANK WEST :FIELD     
LOC         .                                                   :LOCATION  
CNTY        .                                               LEA :LOCATION  
STAT        .                                        NEW MEXICO :STATE     
CTRY        .                                     UNITED STATES :COUNTRY   
SRVC        .                                                   :SERVICE COMPANY
DATE        .                              8/3/2022 10:24:51 AM :LOG DATE  
API         .                                    30025349870000 :API NUMBER
UWI         .                                    30025349870000 :UNIQUE WELL ID
XCOORD      .                                  979541.866465641 :SURFACE X 
YCOORD      .                                  991455.566234473 :SURFACE Y 
LAT         .                                        32.3508526 :LATITUDE  
LON         .                                      -103.6374947 :LONGITUDE 
ELEV        .FT                                            3773 :ELEVATION VALUE
ELEV_TYPE   .                                                KB :ELEVATION REFERENCE TYPE
~Curve Information Section
#MNEM       .UNIT                                      API CODE :CURVE DESCRIPTION
#------------------------------------------------------------------------------
DEPT        .FT                                                 :DEPTH     
AF90        .OHMM                                               :AF90      
GR          .GAPI                                               :GR        
ILD         .                                                   :ILD       
NPHI        .                                                   :Nphi      
PE          .                                                   :PE        
PEFZ        .BE                                                 :PEFZ      
RHOB        .                                                   :RHOB      
RHOZ        .G/C3                                               :RHOZ      
TNPH        .V/V                                                :TNPH      
~A        DEPTH           AF90             GR            ILD           NPHI             PE           PEFZ           RHOB           RHOZ           TNPH
# ...
      6636.0000          4.417        73.4466          4.417         0.1179            2.6            2.6          2.526          2.526         0.1179
      6636.5000         5.0952        87.3985         5.0952         0.1257         2.5867         2.5867         2.5493         2.5493         0.1257
      6637.0000         5.9624        95.1531         5.9624           0.13         2.5867         2.5867          2.573          2.573           0.13
      6637.5000         6.0745        94.7397         6.0745         0.1292         2.6933         2.6933         2.5662         2.5662         0.1292
      6638.0000              6        90.4596              6         0.1205            2.8            2.8         2.5662         2.5662         0.1205
      6638.5000         5.7779        83.6955         5.7779         0.1082         2.8533         2.8533         2.5696         2.5696         0.1082
      6639.0000           5.46        75.2328           5.46         0.1042         2.8267         2.8267         2.5743         2.5743         0.1042
      6639.5000         5.2579        66.3276         5.2579         0.0995            2.8            2.8         2.5811         2.5811         0.0995
      6640.0000         5.1597        62.5016         5.1597            0.1         2.7733         2.7733         2.5628         2.5628            0.1
      6640.5000         5.0633         62.231         5.0633         0.1058         2.7066         2.7066         2.5447         2.5447         0.1058
      6641.0000         4.9691        64.4625         4.9691         0.1163          2.653          2.653         2.5321         2.5321         0.1163
      6641.5000         4.8776        68.0194         4.8776         0.1187          2.586          2.586         2.5308         2.5308         0.1187
      6642.0000         4.8175           71.2         4.8175         0.1222         2.5055         2.5055         2.5308         2.5308         0.1222
      6642.5000         4.7877        75.0667         4.7877         0.1292         2.4249         2.4249         2.5288         2.5288         0.1292
      6643.0000         4.6995        77.7333         4.6995         0.1365          2.371          2.371         2.5229         2.5229         0.1365
      6643.5000         4.6129        78.1333         4.6129         0.1397         2.3438         2.3438         2.5169         2.5169         0.1397
      6644.0000            4.5           77.6            4.5           0.14         2.3299         2.3299         2.5109         2.5109           0.14
      6644.5000         4.3897        78.1333         4.3897           0.14         2.3161         2.3161         2.5043         2.5043           0.14
      6645.0000         4.2822        76.9333         4.2822         0.1376         2.3962         2.3962         2.4983         2.4983         0.1376
      6645.5000         4.2034             76         4.2034         0.1357         2.4897         2.4897         2.4924         2.4924         0.1357
      6646.0000         4.1004        72.9333         4.1004         0.1373         2.4356         2.4356         2.4878         2.4878         0.1373
      6646.5000              4        71.0667              4         0.1386         2.4084         2.4084         2.5011         2.5011         0.1386
      6647.0000         3.9756        70.2667         3.9756         0.1395          2.408          2.408         2.5018         2.5018         0.1395
      6647.5000         4.0499           70.4         4.0499         0.1403         2.4076         2.4076         2.5005         2.5005         0.1403
      6648.0000         4.1259        71.8667         4.1259         0.1397         2.4072         2.4072         2.4985         2.4985         0.1397
      6648.5000            4.5           74.4            4.5         0.1395         2.3933         2.3933         2.4972         2.4972         0.1395
      6649.0000         4.9079           77.2         4.9079         0.1381         2.3389         2.3389         2.4953         2.4953         0.1381
      6649.5000         5.3244        82.2973         5.3244         0.1354          2.379          2.379          2.494          2.494         0.1354
      6650.0000         6.2646        90.2667         6.2646           0.13         2.5407         2.5407         2.4927         2.4927           0.13
      6650.5000         7.3038        93.8667         7.3038         0.1259         2.6757         2.6757         2.5167         2.5167         0.1259
      6651.0000         7.3038        88.7838         7.3038         0.1155         2.7027         2.7027          2.548          2.548         0.1155
      6651.5000         7.3038        81.4865         7.3038         0.1144         2.6622         2.6622           2.56           2.56         0.1144
      6652.0000          7.438           79.2          7.438         0.1157         2.6081         2.6081         2.5687         2.5687         0.1157
      6652.5000         7.6208        81.3513         7.6208         0.1171         2.5676         2.5676         2.5753         2.5753         0.1171
      6653.0000         7.8556        85.6757         7.8556         0.1152         2.5135         2.5135         2.5727         2.5727         0.1152
      6653.5000         7.8556        84.8649         7.8556         0.1104         2.5135         2.5135         2.5693         2.5693         0.1104
      6654.0000         7.7609        83.1081         7.7609         0.1093            2.5            2.5         2.5667         2.5667         0.1093
      6654.5000         7.6208        82.4324         7.6208         0.1093         2.4865         2.4865         2.5633         2.5633         0.1093
      6655.0000         7.2596         82.973         7.2596         0.1099          2.473          2.473         2.5627         2.5627         0.1099
      6655.5000         6.9142        83.5135         6.9142         0.1163         2.4865         2.4865         2.5547         2.5547         0.1163
      6656.0000         6.5814        83.2432         6.5814         0.1254            2.5            2.5         2.5487         2.5487         0.1254
      6656.5000         6.2646        82.8378         6.2646         0.1316         2.4865         2.4865         2.5467         2.5467         0.1316
      6657.0000         5.9624        82.1622         5.9624         0.1295          2.473          2.473         2.5487         2.5487         0.1295
      6657.5000           5.46        76.5333           5.46         0.1249          2.473          2.473         2.5567         2.5567         0.1249
      6658.0000              5        70.1333              5         0.1203         2.4459         2.4459         2.5453         2.5453         0.1203
      6658.5000            4.5        63.6486            4.5         0.1115         2.4324         2.4324          2.534          2.534         0.1115
      6659.0000         4.0499        61.0811         4.0499         0.1109         2.4054         2.4054         2.5227         2.5227         0.1109
      6659.5000         3.6715             60         3.6715         0.1125         2.4054         2.4054          2.498          2.498         0.1125
      6660.0000           3.37           58.8           3.37         0.1214         2.4054         2.4054          2.486          2.486         0.1214
      6660.5000         3.1894        55.8652         3.1894         0.1232         2.3919         2.3919         2.5047         2.5047         0.1232
      6661.0000         3.0744        53.5932         3.0744         0.1232         2.3649         2.3649         2.5113         2.5113         0.1232
      6661.5000         2.9452        54.7912         2.9452         0.1232         2.3514         2.3514         2.5113         2.5113         0.1232
      6662.0000         2.9092        56.7923         2.9092         0.1235         2.3243         2.3243           2.51           2.51         0.1235
