#------------------------------------------------------------------------------
# Created by    : mgeorge
# Created on    : 07/19/2023 10:29:38
#------------------------------------------------------------------------------
~Version Information Section
VERS.           2.0     :   CWLS log ASCII Standard - VERSION 2.0
WRAP.           NO      :   One line per depth step
~Well Information Section
#MNEM       .UNIT                                         VALUE :DESCRIPTION
#------------------------------------------------------------------------------
STRT        .FT                                           11964 :START DEPTH
STOP        .FT                                         16416.5 :STOP DEPTH
STEP        .FT                                             0.5 :STEP      
NULL        .                                           -999.25 :NULL      
COMP        .              ADVANCE ENERGY PARTNERS HAT MESA LLC :COMPANY   
WELL        .                                  DAGGER STATE SWD :WELL      
FLD         .                                               SWD :FIELD     
LOC         .                                                   :LOCATION  
CNTY        .                                               LEA :LOCATION  
STAT        .                                        NEW MEXICO :STATE     
CTRY        .                                     UNITED STATES :COUNTRY   
SRVC        .                                                   :SERVICE COMPANY
DATE        .                              1/27/2023 5:38:29 PM :LOG DATE  
API         .                                    30025458150000 :API NUMBER
UWI         .                                    30025458150000 :UNIQUE WELL ID
XCOORD      .                                  990031.214140587 :SURFACE X 
YCOORD      .                                  1027167.67164026 :SURFACE Y 
LAT         .                                        32.4498049 :LATITUDE  
LON         .                                      -103.6069526 :LONGITUDE 
ELEV        .FT                                            3803 :ELEVATION VALUE
ELEV_TYPE   .                                                KB :ELEVATION REFERENCE TYPE
~Curve Information Section
#MNEM       .UNIT                                      API CODE :CURVE DESCRIPTION
#------------------------------------------------------------------------------
DEPT        .FT                                                 :DEPTH     
AF90        .OHMM                                               :AF90      
AFCO90      .MM/M                                               :Array Induction Four Foot Conductivity A90 {F13.4}
AT90        .OHMM                                               :AT90      
ATCO90      .MM/M                                               :ATCO90    
ATRT        .OHMM                                               :ATRT      
CNTC        .HZ                                                 :CNTC      
ECGR        .GAPI                                               :ECGR      
EHGR        .GAPI                                               :EHGR      
GAMMA       .UNITLESS                                           :GAMMA     
GR          .GAPI                                               :GR        
GR_EDTC     .GAPI                                               :GR_EDTC   
HCGR        .GAPI                                               :HCGR      
HGR         .GAPI                                               :HGR       
HNPO        .CFCF                                               :HNPO      
HSGR        .GAPI                                               :HSGR      
ILD         .                                                   :ILD       
MCGR        .GAPI                                               :MCGR      
NPHI        .CFCF                                               :Nphi      
NPOR        .CFCF                                               :NPOR      
NPOR_LIM    .CFCF                                               :NPOR_LIM  
PE          .                                                   :PE        
PEF         .                                                   :PEF       
PEF8        .                                                   :PEF8      
PEFZ        .                                                   :PEFZ      
RHO8        .G/C3                                               :RHO8      
RHOB        .                                                   :RHOB      
RHOZ        .G/C3                                               :RHOZ      
TNPH        .CFCF                                               :TNPH      
TNPH_LIM    .CFCF                                               :TNPH_LIM  
~A        DEPTH           AF90         AFCO90           AT90         ATCO90           ATRT           CNTC           ECGR           EHGR          GAMMA             GR        GR_EDTC           HCGR            HGR           HNPO           HSGR            ILD           MCGR           NPHI           NPOR       NPOR_LIM             PE            PEF           PEF8           PEFZ           RHO8           RHOB           RHOZ           TNPH       TNPH_LIM
# ...
     14475.0000        -999.25        -999.25        -999.25        -999.25        -999.25        3075.67         77.113         75.313        -999.25          75.78         70.358         62.099         74.011          0.147         74.445        -999.25           58.6          0.152          0.148          0.148        -999.25        -999.25          4.234          4.251          2.641        2.64331          2.644          0.148          0.148
     14475.5000        -999.25        -999.25        -999.25        -999.25        -999.25       3039.961          80.57         81.738        -999.25         79.177         77.472         63.073         80.325          0.147         76.696        -999.25         59.519          0.158          0.162          0.162        -999.25        -999.25          4.252          4.252          2.646        2.64331          2.644           0.15           0.15
     14476.0000        -999.25        -999.25        -999.25        -999.25        -999.25       2989.639          84.02         83.879        -999.25         82.568             79         65.844         82.429          0.139         77.838        -999.25         62.235          0.158          0.143          0.143        -999.25        -999.25          4.272           4.22          2.649        2.64673          2.647          0.153          0.153
     14476.5000        -999.25        -999.25        -999.25        -999.25        -999.25       2938.194         81.641         85.664        -999.25          80.23         80.418         64.669         84.184          0.157         79.682        -999.25         61.056          0.166          0.154          0.154        -999.25        -999.25          4.191          4.147          2.654        2.64331          2.643          0.157          0.157
     14477.0000        -999.25        -999.25        -999.25        -999.25        -999.25       2937.535          82.69         74.599        -999.25          81.26         81.002         64.966         73.309          0.178         80.885        -999.25          61.33          0.175          0.172          0.172        -999.25        -999.25          3.951          4.111          2.643        2.63647          2.636          0.166          0.166
     14477.5000        -999.25        -999.25        -999.25        -999.25        -999.25       2889.763         83.522         87.806        -999.25         82.079         82.637         66.869         86.288          0.185         82.419        -999.25         63.186          0.179          0.178          0.178        -999.25        -999.25           4.06          4.085          2.635        2.63134          2.631          0.171          0.171
     14478.0000        -999.25        -999.25        -999.25        -999.25        -999.25       2844.714         87.545         88.163        -999.25         86.032         86.979         66.833         86.639           0.16         82.266        -999.25         63.121          0.179          0.164          0.164        -999.25        -999.25            4.1          4.111          2.619        2.61937          2.619          0.172          0.172
     14478.5000        -999.25        -999.25        -999.25        -999.25        -999.25       2814.173         87.307         87.091        -999.25         85.798         86.974         68.381         85.585          0.179           84.4        -999.25         64.524          0.179          0.171          0.171        -999.25        -999.25          3.945          4.066          2.634        2.62108          2.622          0.176          0.176
     14479.0000        -999.25        -999.25        -999.25        -999.25        -999.25        2824.01         86.355         87.092        -999.25         84.863         92.678         68.299         85.587          0.194         83.282        -999.25         64.474          0.188          0.186          0.186        -999.25        -999.25          4.039          4.071          2.611        2.61766          2.618          0.177          0.177
     14479.5000        -999.25        -999.25        -999.25        -999.25        -999.25       2867.033          80.31         85.307        -999.25         78.922         93.284         67.507         83.832          0.192         82.474        -999.25         63.711          0.188          0.192          0.192        -999.25        -999.25          4.022          4.072          2.618        2.62792          2.629          0.176          0.176
     14480.0000        -999.25        -999.25        -999.25        -999.25        -999.25        2989.44         77.938         68.531        -999.25          76.59         86.868         61.979         67.346          0.183         76.615        -999.25         58.397          0.178          0.175          0.175        -999.25        -999.25          4.207          4.168          2.632        2.63134          2.632          0.163          0.163
     14480.5000        -999.25        -999.25        -999.25        -999.25        -999.25       3126.559         74.963         79.537        -999.25         73.667         79.447         56.259         78.162          0.146          71.65        -999.25         52.896          0.154          0.148          0.148        -999.25        -999.25          4.233          4.218          2.648        2.64331          2.644          0.149          0.149
     14481.0000        -999.25        -999.25        -999.25        -999.25        -999.25       3245.563         75.439         76.384        -999.25         74.135         76.718         56.275         75.063          0.116         68.028        -999.25         52.996          0.132          0.117          0.117        -999.25        -999.25          4.298          4.223          2.664        2.65015           2.65          0.134          0.134
     14481.5000        -999.25        -999.25        -999.25        -999.25        -999.25       3300.918         74.004         69.959        -999.25         72.725         78.244          55.82          68.75          0.122         69.157        -999.25         52.494          0.129          0.118          0.118        -999.25        -999.25           4.17           4.17          2.667        2.65015           2.65          0.128          0.128
     14482.0000        -999.25        -999.25        -999.25        -999.25        -999.25       3359.223         76.094          75.67        -999.25         74.778         85.302         62.186         74.362          0.146         73.648        -999.25         58.574          0.136          0.133          0.133        -999.25        -999.25          4.087          4.118          2.637        2.65015           2.65           0.13           0.13
     14482.5000        -999.25        -999.25        -999.25        -999.25        -999.25       3365.741         73.595         82.511        -999.25         72.323         83.714         62.737         81.084           0.15         74.846        -999.25         59.032          0.143          0.151          0.151        -999.25        -999.25          4.092          4.076          2.649         2.6416          2.641          0.133          0.133
     14483.0000        -999.25        -999.25        -999.25        -999.25        -999.25       3414.045         72.911         62.464        -999.25          71.65         80.284         62.177         61.384          0.126         74.229        -999.25         58.457          0.134          0.129          0.129        -999.25        -999.25          3.991           4.03          2.643         2.6416          2.642           0.13           0.13
     14483.5000        -999.25        -999.25        -999.25        -999.25        -999.25       3512.072         66.776         74.003        -999.25         65.622         71.785          59.77         72.724          0.113         72.234        -999.25         56.131          0.121          0.119          0.119        -999.25        -999.25          3.999          3.993           2.65        2.64502          2.645          0.118          0.118
