#------------------------------------------------------------------------------
# Created by    : mgeorge
# Created on    : 07/19/2023 10:29:38
#------------------------------------------------------------------------------
~Version Information Section
VERS.           2.0     :   CWLS log ASCII Standard - VERSION 2.0
WRAP.           NO      :   One line per depth step
~Well Information Section
#MNEM       .UNIT                                         VALUE :DESCRIPTION
#------------------------------------------------------------------------------
STRT        .FT                                           11964 :START DEPTH
STOP        .FT                                         16416.5 :STOP DEPTH
STEP        .FT                                             0.5 :STEP      
NULL        .                                           -999.25 :NULL      
COMP        .              ADVANCE ENERGY PARTNERS HAT MESA LLC :COMPANY   
WELL        .                                  DAGGER STATE SWD :WELL      
FLD         .                                               SWD :FIELD     
LOC         .                                                   :LOCATION  
CNTY        .                                               LEA :LOCATION  
STAT        .                                        NEW MEXICO :STATE     
CTRY        .                                     UNITED STATES :COUNTRY   
SRVC        .                                                   :SERVICE COMPANY
DATE        .                              1/27/2023 5:38:29 PM :LOG DATE  
API         .                                    30025458150000 :API NUMBER
UWI         .                                    30025458150000 :UNIQUE WELL ID
XCOORD      .                                  990031.214140587 :SURFACE X 
YCOORD      .                                  1027167.67164026 :SURFACE Y 
LAT         .                                        32.4498049 :LATITUDE  
LON         .                                      -103.6069526 :LONGITUDE 
ELEV        .FT                                            3803 :ELEVATION VALUE
ELEV_TYPE   .                                                KB :ELEVATION REFERENCE TYPE
~Curve Information Section
#MNEM       .UNIT                                      API CODE :CURVE DESCRIPTION
#------------------------------------------------------------------------------
DEPT        .FT                                                 :DEPTH     
AF90        .OHMM                                               :AF90      
AFCO90      .MM/M                                               :Array Induction Four Foot Conductivity A90 {F13.4}
AT90        .OHMM                                               :AT90      
ATCO90      .MM/M                                               :ATCO90    
ATRT        .OHMM                                               :ATRT      
CNTC        .HZ                                                 :CNTC      
ECGR        .GAPI                                               :ECGR      
EHGR        .GAPI                                               :EHGR      
GAMMA       .UNITLESS                                           :GAMMA     
GR          .GAPI                                               :GR        
GR_EDTC     .GAPI                                               :GR_EDTC   
HCGR        .GAPI                                               :HCGR      
HGR         .GAPI                                               :HGR       
HNPO        .CFCF                                               :HNPO      
HSGR        .GAPI                                               :HSGR      
ILD         .                                                   :ILD       
MCGR        .GAPI                                               :MCGR      
NPHI        .CFCF                                               :Nphi      
NPOR        .CFCF                                               :NPOR      
NPOR_LIM    .CFCF                                               :NPOR_LIM  
PE          .                                                   :PE        
PEF         .                                                   :PEF       
PEF8        .                                                   :PEF8      
PEFZ        .                                                   :PEFZ      
RHO8        .G/C3                                               :RHO8      
RHOB        .                                                   :RHOB      
RHOZ        .G/C3                                               :RHOZ      
TNPH        .CFCF                                               :TNPH      
TNPH_LIM    .CFCF                                               :TNPH_LIM  
~A        DEPTH           AF90         AFCO90           AT90         ATCO90           ATRT           CNTC           ECGR           EHGR          GAMMA             GR        GR_EDTC           HCGR            HGR           HNPO           HSGR            ILD           MCGR           NPHI           NPOR       NPOR_LIM             PE            PEF           PEF8           PEFZ           RHO8           RHOB           RHOZ           TNPH       TNPH_LIM
# ...
     14682.0000        -999.25        -999.25        -999.25        -999.25        -999.25       5764.423         49.583         46.818        -999.25         48.726         41.493          25.27         46.008          0.018         36.115        -999.25         23.404          0.012          0.017          0.017        -999.25        -999.25          3.006          3.076          2.663        2.66212          2.663          0.024          0.024
     14682.5000        -999.25        -999.25        -999.25        -999.25        -999.25       5724.688         43.702         41.047        -999.25         42.946         36.623          25.86         40.338          0.004          35.55        -999.25         23.918          0.014          0.005          0.005        -999.25        -999.25          3.013           3.16          2.687        2.66725          2.667          0.022          0.022
     14683.0000        -999.25        -999.25        -999.25        -999.25        -999.25       5427.602         48.781         43.546        -999.25         47.938         47.649         34.782         42.793          0.015         46.423        -999.25         32.172          0.034          0.019          0.019        -999.25        -999.25          3.617          3.317          2.671         2.6587          2.659          0.033          0.033
     14683.5000        -999.25        -999.25        -999.25        -999.25        -999.25       5136.334         57.228         61.749        -999.25         56.239         59.637         42.857         60.682          0.081         57.155        -999.25          39.61          0.072          0.084          0.084        -999.25        -999.25          3.325          3.438          2.608        2.62792          2.628          0.059          0.059
     14684.0000        -999.25        -999.25        -999.25        -999.25        -999.25       4852.241         59.489         66.389        -999.25          58.46         66.941         44.511         65.242          0.121         58.419        -999.25         41.197          0.089          0.116          0.116        -999.25        -999.25          3.504          3.431          2.594         2.6074          2.607          0.084          0.084
     14684.5000        -999.25        -999.25        -999.25        -999.25        -999.25       4671.779         54.611         50.328        -999.25         53.667         59.302         42.424         49.458          0.095         52.257        -999.25         39.463          0.077          0.088          0.088        -999.25        -999.25          3.438          3.383          2.608        2.60227          2.603          0.083          0.083
     14685.0000        -999.25        -999.25        -999.25        -999.25        -999.25       4705.337         49.614         47.115        -999.25         48.756         53.734         40.336         46.301          0.056         50.525        -999.25         37.598           0.06          0.059          0.059        -999.25        -999.25          3.253          3.294          2.616        2.60227          2.603          0.071          0.071
     14685.5000        -999.25        -999.25        -999.25        -999.25        -999.25       4797.272         56.634         51.399        -999.25         55.655         53.235         44.356          50.51          0.051         53.849        -999.25         41.544          0.058          0.056          0.056        -999.25        -999.25          3.212          3.284          2.597        2.59372          2.595          0.065          0.065
     14686.0000        -999.25        -999.25        -999.25        -999.25        -999.25       4850.979         66.866         71.387        -999.25          65.71         61.259         51.862         70.153          0.071          62.16        -999.25         48.721          0.061          0.073          0.073        -999.25        -999.25          3.258          3.309          2.563        2.58175          2.582          0.068          0.068
     14686.5000        -999.25        -999.25        -999.25        -999.25        -999.25       4800.865         77.574         77.811        -999.25         76.233         69.478         58.713         76.466          0.072         70.492        -999.25         55.251          0.063          0.073          0.073        -999.25        -999.25          3.446          3.407           2.57        2.57149          2.571          0.068          0.068
     14687.0000        -999.25        -999.25        -999.25        -999.25        -999.25       4740.939          82.69         83.522        -999.25          81.26         76.316         66.175         82.078          0.061         82.296        -999.25         62.301          0.058          0.064          0.064        -999.25        -999.25          3.456          3.542          2.568        2.57662          2.577          0.068          0.068
     14687.5000        -999.25        -999.25        -999.25        -999.25        -999.25       4706.429         88.282         86.735        -999.25         86.755         83.354         69.531         85.236           0.06         87.928        -999.25         65.536          0.053          0.064          0.064        -999.25        -999.25          3.831          3.659          2.593         2.5903          2.591          0.065          0.065
     14688.0000        -999.25        -999.25        -999.25        -999.25        -999.25       4618.115         88.876         94.587        -999.25          87.34         84.407         70.491         92.952          0.063         88.682        -999.25         66.567          0.052          0.061          0.061        -999.25        -999.25          3.834          3.653          2.622        2.61424          2.614          0.065          0.065
     14688.5000        -999.25        -999.25        -999.25        -999.25        -999.25       4454.175         92.684         85.306        -999.25         91.081         89.138         67.978         83.832           0.06         87.374        -999.25         64.225          0.062          0.061          0.061        -999.25        -999.25          3.512          3.587          2.638        2.62279          2.622          0.066          0.066
     14689.0000        -999.25        -999.25        -999.25        -999.25        -999.25       4226.586         93.041         98.157        -999.25         91.432         90.225         64.189          96.46          0.073         87.675        -999.25         60.545          0.076          0.077          0.077        -999.25        -999.25          3.252           3.55          2.649        2.64673          2.647          0.078          0.078
     14689.5000        -999.25        -999.25        -999.25        -999.25        -999.25       3810.421         94.468         95.658        -999.25         92.835         89.723         65.532         94.005          0.088         90.229        -999.25         61.774          0.103          0.087          0.087        -999.25        -999.25            3.8          3.643          2.692        2.66725          2.667          0.098          0.098
     14690.0000        -999.25        -999.25        -999.25        -999.25        -999.25       3366.346         95.896         89.589        -999.25         94.238          88.06         66.226         88.041          0.117         94.111        -999.25         62.303          0.144          0.119          0.119        -999.25        -999.25          3.798          3.773          2.688        2.67409          2.674          0.137          0.137
     14690.5000        -999.25        -999.25        -999.25        -999.25        -999.25        3028.95        100.774         102.44        -999.25         99.032         87.573         69.228        100.669          0.241         99.903        -999.25         65.067          0.234          0.235          0.235        -999.25        -999.25          3.799          3.862          2.648        2.66041           2.66          0.188          0.188
