#------------------------------------------------------------------------------
# Created by    : mgeorge
# Created on    : 07/19/2023 10:29:23
#------------------------------------------------------------------------------
~Version Information Section
VERS.           2.0     :   CWLS log ASCII Standard - VERSION 2.0
WRAP.           NO      :   One line per depth step
~Well Information Section
#MNEM       .UNIT                                         VALUE :DESCRIPTION
#------------------------------------------------------------------------------
STRT        .FT                                             166 :START DEPTH
STOP        .FT                                           14648 :STOP DEPTH
STEP        .FT                                             0.5 :STEP      
NULL        .                                           -999.25 :NULL      
COMP        .                     DEVON ENERGY PRODUCTION CO LP :COMPANY   
WELL        .                          RIO BLANCO 4 FEDERAL COM :WELL      
FLD         .                               BELL LAKE NORTHEAST :FIELD     
LOC         .                                                   :LOCATION  
CNTY        .                                               LEA :LOCATION  
STAT        .                                        NEW MEXICO :STATE     
CTRY        .                                     UNITED STATES :COUNTRY   
SRVC        .                                                   :SERVICE COMPANY
DATE        .                               8/4/2022 3:29:17 PM :LOG DATE  
API         .                                    30025364250000 :API NUMBER
UWI         .                                    30025364250000 :UNIQUE WELL ID
XCOORD      .                                  1030633.57202521 :SURFACE X 
YCOORD      .                                  982685.374946431 :SURFACE Y 
LAT         .                                        32.3308251 :LATITUDE  
LON         .                                      -103.4713531 :LONGITUDE 
ELEV        .FT                                            3422 :ELEVATION VALUE
ELEV_TYPE   .                                                KB :ELEVATION REFERENCE TYPE
~Curve Information Section
#MNEM       .UNIT                                      API CODE :CURVE DESCRIPTION
#------------------------------------------------------------------------------
DEPT        .FT                                                 :DEPTH     
AF90        .OHMM                                               :AF90      
ASF90       .OHMM                                               :ARRAY INDUCTION FOUR FOOT RESISTIVITY A90
DRESWS      .OHMM                                               :DEEP INDUCTION RESISTIVITY
GR          .GAPI                                               :GR        
GRR         .GAPI                                               :GRR       
GRS         .GAPI                                               :GRS       
GRWS        .GAPI                                               :GAMMA RAY FROM SONIC LOG
RLA5        .OHMM                                               :RLA5      
~A        DEPTH           AF90          ASF90         DRESWS             GR            GRR            GRS           GRWS           RLA5
# ...
     13765.5000        -999.25        -999.25         14.643       130.1786            200         132.69       132.0369         14.643
     13766.0000        -999.25        -999.25         8.8176       124.7273            200       130.2218         132.69         8.8176
     13766.5000        -999.25        -999.25        12.9622       127.2727       194.2435       127.2879       130.2218        12.9622
     13767.0000        -999.25        -999.25         15.543       130.1786       159.9953       126.1002       127.2879         15.543
     13767.5000        -999.25        -999.25        17.4009       130.1786       149.9957       127.3094       126.1002        17.4009
     13768.0000        -999.25        -999.25        17.4021       124.5455       149.2776       128.5597       127.3094        17.4021
     13768.5000        -999.25        -999.25        19.1748       117.8571       163.6969       127.9346       128.5597        19.1748
     13769.0000        -999.25        -999.25        20.2615         116.25       174.1416       124.4096       127.9346        20.2615
     13769.5000        -999.25        -999.25        17.1665       124.9091       175.0643        122.604       124.4096        17.1665
     13770.0000        -999.25        -999.25        21.0698       139.4643       172.4661       124.6499        122.604        21.0698
     13770.5000        -999.25        -999.25        25.6417       151.0714       182.4692       127.3255       124.6499        25.6417
     13771.0000        -999.25        -999.25        28.0435       148.0357       188.6183       127.5378       127.3255        28.0435
     13771.5000        -999.25        -999.25        16.7035       133.3929       185.1535       125.4436       127.5378        16.7035
     13772.0000        -999.25        -999.25        29.0334       115.7996       169.9708       123.6016       125.4436        29.0334
     13772.5000        -999.25        -999.25        48.4205       109.3103         159.53       122.3384       123.6016        48.4205
     13773.0000        -999.25        -999.25        54.2165        102.069       143.2721       118.6552       122.3384        54.2165
     13773.5000        -999.25        -999.25         35.896        95.7407       135.9932        111.293       118.6552         35.896
     13774.0000        -999.25        -999.25        40.1969       100.5172       131.7552       103.2713        111.293        40.1969
     13774.5000        -999.25        -999.25        65.4786       101.2069       124.0578        90.0765       103.2713        65.4786
     13775.0000        -999.25        -999.25        73.8205       106.7241       112.8227        82.6593        90.0765        73.8205
     13775.5000        -999.25        -999.25        31.9976       111.5789       104.2043         77.642        82.6593        31.9976
     13776.0000        -999.25        -999.25        15.7062        114.386       107.5356         79.626         77.642        15.7062
     13776.5000        -999.25        -999.25        14.5575       114.5614       119.2949        89.8393         79.626        14.5575
     13777.0000        -999.25        -999.25          13.43       115.7895       134.3425       101.4231        89.8393          13.43
     13777.5000        -999.25        -999.25         9.8273       114.0351       145.5923        112.521       101.4231         9.8273
     13778.0000        -999.25        -999.25        10.4081       114.0351       148.2231       116.4822        112.521        10.4081
     13778.5000        -999.25        -999.25        11.7276       120.7407       140.8389       112.9656       112.9656        11.7276
     13779.0000        -999.25        -999.25        12.9657       127.7778       139.3491       109.5918       109.5918        12.9657
     13779.5000        -999.25        -999.25         9.4238       127.7778       142.9278       109.9335       109.9335         9.4238
     13780.0000        -999.25        -999.25        12.2928       122.4074       146.9385       112.6386       112.6386        12.2928
     13780.5000        -999.25        -999.25        14.2168       121.6667       149.7997       114.3977       114.3977        14.2168
     13781.0000        -999.25        -999.25         8.7861       123.7037       140.1583       111.6709       111.6709         8.7861
     13781.5000        -999.25        -999.25        11.2129        127.037       133.4069       108.6229       108.6229        11.2129
     13782.0000        -999.25        -999.25        24.1111       130.3571       132.5745       107.8202       107.8202        24.1111
     13782.5000        -999.25        -999.25        45.5086        127.037        147.343       111.8333       111.8333        45.5086
     13783.0000        -999.25        -999.25        31.7434       123.5185       158.4851        119.457        119.457        31.7434
     13783.5000        -999.25        -999.25        21.3085       127.4074       150.4228       128.2502       128.2502        21.3085
     13784.0000        -999.25        -999.25        19.5162        142.807       143.4993       132.8807       132.8807        19.5162
     13784.5000        -999.25        -999.25        29.9665       156.9643       146.1261       132.4001       132.4001        29.9665
     13785.0000        -999.25        -999.25         51.762       159.2857       159.3905       132.3068       132.3068         51.762
     13785.5000        -999.25        -999.25        92.6519       132.3214       181.2309       142.8246       142.8246        92.6519
     13786.0000        -999.25        -999.25       141.5395       114.0351       193.1257       153.3323       153.3323       141.5395
     13786.5000        -999.25        -999.25       206.7637       124.4444       183.7957       147.7568       147.7568       206.7637
     13787.0000        -999.25        -999.25       242.6758       136.7857       161.5084        133.112        133.112       242.6758
     13787.5000        -999.25        -999.25       111.9369       115.7895       154.0694       122.6519       122.6519       111.9369
     13788.0000        -999.25        -999.25        100.227        76.4912       156.2926       123.8597       123.8597        100.227
     13788.5000        -999.25        -999.25       121.7564        58.2373        144.212       123.6198       123.6198       121.7564
     13789.0000        -999.25        -999.25       187.0936        53.1048       122.6793        98.9897        98.9897       187.0936
     13789.5000        -999.25        -999.25       599.2745        65.1152        91.1338        78.2098        78.2098       599.2745
     13790.0000        -999.25        -999.25       1009.227            100        74.1041         59.155         59.155       1009.227
     13790.5000        -999.25        -999.25       212.9872       102.2414        80.7665         52.924         52.924       212.9872
     13791.0000        -999.25        -999.25       182.9093        107.069        98.1092        58.3281        58.3281       182.9093
     13791.5000        -999.25        -999.25       194.6586       103.4483       113.0653        70.1777        70.1777       194.6586
     13792.0000        -999.25        -999.25       204.3341        84.1071       132.8825        88.3643        88.3643       204.3341
     13792.5000        -999.25        -999.25       141.0057       100.5172       125.7933       102.1667       102.1667       141.0057
     13793.0000        -999.25        -999.25       134.4869       100.5172       103.6919       100.4948       100.4948       134.4869
     13793.5000        -999.25        -999.25        119.629       102.4138        97.2888        93.1538        93.1538        119.629
     13794.0000        -999.25        -999.25        28.7479       108.4483       101.9643        89.6459        89.6459        28.7479
     13794.5000        -999.25        -999.25        17.8153       115.7143       117.9596        95.2571        95.2571        17.8153
