#------------------------------------------------------------------------------
# Created by    : mgeorge
# Created on    : 07/19/2023 10:29:23
#------------------------------------------------------------------------------
~Version Information Section
VERS.           2.0     :   CWLS log ASCII Standard - VERSION 2.0
WRAP.           NO      :   One line per depth step
~Well Information Section
#MNEM       .UNIT                                         VALUE :DESCRIPTION
#------------------------------------------------------------------------------
STRT        .FT                                             166 :START DEPTH
STOP        .FT                                           14648 :STOP DEPTH
STEP        .FT                                             0.5 :STEP      
NULL        .                                           -999.25 :NULL      
COMP        .                     DEVON ENERGY PRODUCTION CO LP :COMPANY   
WELL        .                          RIO BLANCO 4 FEDERAL COM :WELL      
FLD         .                               BELL LAKE NORTHEAST :FIELD     
LOC         .                                                   :LOCATION  
CNTY        .                                               LEA :LOCATION  
STAT        .                                        NEW MEXICO :STATE     
CTRY        .                                     UNITED STATES :COUNTRY   
SRVC        .                                                   :SERVICE COMPANY
DATE        .                               8/4/2022 3:29:17 PM :LOG DATE  
API         .                                    30025364250000 :API NUMBER
UWI         .                                    30025364250000 :UNIQUE WELL ID
XCOORD      .                                  1030633.57202521 :SURFACE X 
YCOORD      .                                  982685.374946431 :SURFACE Y 
LAT         .                                        32.3308251 :LATITUDE  
LON         .                                      -103.4713531 :LONGITUDE 
ELEV        .FT                                            3422 :ELEVATION VALUE
ELEV_TYPE   .                                                KB :ELEVATION REFERENCE TYPE
~Curve Information Section
#MNEM       .UNIT                                      API CODE :CURVE DESCRIPTION
#------------------------------------------------------------------------------
DEPT        .FT                                                 :DEPTH     
AF90        .OHMM                                               :AF90      
ASF90       .OHMM                                               :ARRAY INDUCTION FOUR FOOT RESISTIVITY A90
DRESWS      .OHMM                                               :DEEP INDUCTION RESISTIVITY
GR          .GAPI                                               :GR        
GRR         .GAPI                                               :GRR       
GRS         .GAPI                                               :GRS       
GRWS        .GAPI                                               :GAMMA RAY FROM SONIC LOG
RLA5        .OHMM                                               :RLA5      
~A        DEPTH           AF90          ASF90         DRESWS             GR            GRR            GRS           GRWS           RLA5
# ...
     14355.5000        -999.25        -999.25       111.2443       195.7407       171.2013       183.5484       186.8618       111.2443
     14356.0000        -999.25        -999.25       101.3726       198.5185       179.7207       189.0308       183.5484       101.3726
     14356.5000        -999.25        -999.25       134.0489       198.7037       193.1417        198.337       189.0308       134.0489
     14357.0000        -999.25        -999.25         69.818       199.0741            200       199.8234        198.337         69.818
     14357.5000        -999.25        -999.25        76.3141       199.4444            200       199.8308            200        76.3141
     14358.0000        -999.25        -999.25       101.2674       199.8148            200       199.8372            200       101.2674
     14358.5000        -999.25        -999.25       109.9573            200            200       199.8437            200       109.9573
     14359.0000        -999.25        -999.25        96.5724            200        199.959       199.8501            200        96.5724
     14359.5000        -999.25        -999.25        97.3704            200        199.965       199.8575            200        97.3704
     14360.0000        -999.25        -999.25       109.9173            200       191.7673       199.8639            200       109.9173
     14360.5000        -999.25        -999.25       123.6031       200.0239       177.0511       199.8667            200       123.6031
     14361.0000        -999.25        -999.25       121.7075       197.2939       175.8852       199.8667            200       121.7075
     14361.5000        -999.25        -999.25       111.0924        193.638       183.8316       199.8667            200       111.0924
     14362.0000        -999.25        -999.25        64.4376       197.7599         193.43       199.8667            200        64.4376
     14362.5000        -999.25        -999.25        66.9473       199.4444       199.7663       199.8667            200        66.9473
     14363.0000        -999.25        -999.25        79.5182       199.8148       199.5118       199.8667            200        79.5182
     14363.5000        -999.25        -999.25        83.4621       196.4815        190.474       199.9979            200        83.4621
     14364.0000        -999.25        -999.25        90.3774       193.5185       189.4493       195.3269       199.9979        90.3774
     14364.5000        -999.25        -999.25         79.265       190.9259       188.7132       193.3621       195.3269         79.265
     14365.0000        -999.25        -999.25        59.7606       190.7407       186.2728       198.0311       193.3621        59.7606
     14365.5000        -999.25        -999.25        64.7123       195.1852       183.9405       199.7753       183.9405        64.7123
     14366.0000        -999.25        -999.25         79.727            200       185.6273       199.8167       185.6273         79.727
     14366.5000        -999.25        -999.25        80.5603            200       198.9716        -999.25       198.9716        80.5603
     14367.0000        -999.25        -999.25        82.4293            200            200        -999.25            200        82.4293
     14367.5000        -999.25        -999.25         87.649            200            200        -999.25            200         87.649
     14368.0000        -999.25        -999.25         78.579            200            200        -999.25            200         78.579
     14368.5000        -999.25        -999.25        87.0563            200            200        -999.25            200        87.0563
     14369.0000        -999.25        -999.25        67.6279            200            200        -999.25            200        67.6279
     14369.5000        -999.25        -999.25        60.3822            200            200        -999.25            200        60.3822
     14370.0000        -999.25        -999.25        64.8245            200            200        -999.25            200        64.8245
     14370.5000        -999.25        -999.25        77.0879            200       200.1316        -999.25            200        77.0879
     14371.0000        -999.25        -999.25        90.4427            200       200.1316        -999.25            200        90.4427
     14371.5000        -999.25        -999.25        94.2897            200       200.1316        -999.25            200        94.2897
     14372.0000        -999.25        -999.25        26.5392            200       200.1316        -999.25            200        26.5392
     14372.5000        -999.25        -999.25        32.5583            200       200.1316        -999.25            200        32.5583
     14373.0000        -999.25        -999.25        69.1688            200       200.1316        -999.25            200        69.1688
     14373.5000        -999.25        -999.25        94.7618            200       200.1316        -999.25            200        94.7618
     14374.0000        -999.25        -999.25       115.1303            200       200.1316        -999.25            200       115.1303
     14374.5000        -999.25        -999.25       100.1969            200       200.1316        -999.25            200       100.1969
     14375.0000        -999.25        -999.25       118.3608            200       200.1316        -999.25            200       118.3608
     14375.5000        -999.25        -999.25       147.3271            200       200.1316        -999.25            200       147.3271
     14376.0000        -999.25        -999.25       145.3113            200       200.1316        -999.25            200       145.3113
     14376.5000        -999.25        -999.25       156.2589            200       200.1316        -999.25            200       156.2589
     14377.0000        -999.25        -999.25       106.0046            200       200.1316        -999.25            200       106.0046
     14377.5000        -999.25        -999.25       102.8865            200       200.1316        -999.25            200       102.8865
     14378.0000        -999.25        -999.25       122.9139            200       200.1316        -999.25            200       122.9139
     14378.5000        -999.25        -999.25       108.5522            200       200.1316        -999.25            200       108.5522
     14379.0000        -999.25        -999.25        56.4237            200       200.1316        -999.25            200        56.4237
     14379.5000        -999.25        -999.25        47.6198            200       200.1316        -999.25            200        47.6198
     14380.0000        -999.25        -999.25       127.5185            200       200.1316        -999.25            200       127.5185
     14380.5000        -999.25        -999.25       117.7315            200       200.1316        -999.25            200       117.7315
     14381.0000        -999.25        -999.25       108.1733            200       200.1316        -999.25            200       108.1733
     14381.5000        -999.25        -999.25       114.9786            200       200.1316        -999.25            200       114.9786
     14382.0000        -999.25        -999.25        137.094            200       200.1316        -999.25            200        137.094
     14382.5000        -999.25        -999.25        161.823            200       200.1316        -999.25            200        161.823
     14383.0000        -999.25        -999.25       171.6871            200       200.1316        -999.25            200       171.6871
     14383.5000        -999.25        -999.25       133.1416            200       200.1316        -999.25            200       133.1416
     14384.0000        -999.25        -999.25       121.3049            200       200.1316        -999.25            200       121.3049
     14384.5000        -999.25        -999.25       137.7924            200       200.1316        -999.25            200       137.7924
